[{
  "_id": {
    "$oid": "686f6001453f64991df3f60b"
  },
  "store_id": "1683",
  "chain": "winmart",
  "address": "Tầng trệt Cao ốc Silland, số nhà 7J, đường số 9A, Khu dân cư Trung Sơn, ấp 4B, xã Bình Hưng, huyện Bình Chánh, TP. Hồ Chí Minh Việt Nam",
  "district": "H. Bình Chánh",
  "lat": 10.730816,
  "lng": 106.68872,
  "name": "WM HCM Trung Sơn",
  "phone": "0559701683",
  "province": "TP. Hồ Chí Minh",
  "ward": "X. Bình Hưng"
},
{
  "_id": {
    "$oid": "686f6001453f64991df3f60c"
  },
  "store_id": "5547",
  "chain": "winmart+",
  "address": "Lô D.1.10, Tầng 1, Khối tháp D, Khu G, Khu Nhà ở, Phước Kiển (Khu G và Khu E), Ấp 5, Phước Kiển, H. Nhà Bè, TP. Hồ Chí Minh Việt Nam",
  "district": "H. Nhà Bè",
  "lat": 10.722758,
  "lng": 106.7034,
  "name": "WIN HCM D.1.10, Tầng 1 Sunrise Rive",
  "phone": "",
  "province": "TP. Hồ Chí Minh",
  "ward": "X. Phước Kiển"
},
{
  "_id": {
    "$oid": "686f6002453f64991df3f60d"
  },
  "store_id": "3112",
  "chain": "winmart+",
  "address": "Căn shop TM 03, Tầng trệt block 1 (Khu 1), phân khu 15A1,Đường Nguyễn Hữu Thọ, xã Phước Kiển, H. Nhà Bè, TP. Hồ Chí Minh Việt Nam",
  "district": "H. Nhà Bè",
  "lat": 10.710469,
  "lng": 106.708664,
  "name": "WIN HCM Dragon Hill Residence &",
  "phone": "",
  "province": "TP. Hồ Chí Minh",
  "ward": "X. Phước Kiển"
},
{
  "_id": {
    "$oid": "686f6002453f64991df3f60e"
  },
  "store_id": "6422",
  "chain": "winmart+",
  "address": "I.1.05 và I.1.06 tòa nhà Sunrise Riverside tầng 1, tháp I, Ấp  5, X. Phước Kiển, H. Nhà Bè TP. Hồ Chí Minh Việt Nam",
  "district": "H. Nhà Bè",
  "lat": 10.722574,
  "lng": 106.70508,
  "name": "WIN HCM I.1.05-06 CC Sunrise",
  "phone": "",
  "province": "TP. Hồ Chí Minh",
  "ward": "X. Phước Kiển"
},
{
  "_id": {
    "$oid": "686f6002453f64991df3f60f"
  },
  "store_id": "3533",
  "chain": "winmart+",
  "address": "C01.02 tầng 1 khối đế số 156A Nguyễn Hữu Thọ, xã Phước Kiển, Huyện Nhà Bè, TP. Hồ Chí Minh Việt Nam",
  "district": "H. Nhà Bè",
  "lat": 10.717148,
  "lng": 106.701965,
  "name": "WM+ HCM 156A Nguyễn Hữu Thọ",
  "phone": "",
  "province": "TP. Hồ Chí Minh",
  "ward": "X. Phước Kiển"
},
{
  "_id": {
    "$oid": "686f6002453f64991df3f610"
  },
  "store_id": "6242",
  "chain": "winmart+",
  "address": "Shop 58 - 60 - 62, Block B3 - Chung cư The Park Residence, 12 Nguyễn Hữu Thọ, P. Phước Kiển, H. Nhà Bè TP. Hồ Chí Minh Việt Nam",
  "district": "H. Nhà Bè",
  "lat": 10.712496,
  "lng": 106.707146,
  "name": "WIN HCM Shop 58-60-62, B3-CC The",
  "phone": "",
  "province": "TP. Hồ Chí Minh",
  "ward": "X. Phước Kiểng"
},
{
  "_id": {
    "$oid": "686f6003453f64991df3f611"
  },
  "store_id": "1545",
  "chain": "winmart",
  "address": "Vincom Center Đồng Khởi, 72, Lê Thánh Tôn, Quận 1, TP. Hồ Chí Minh Việt Nam",
  "district": "Q. 1",
  "lat": 10.777792,
  "lng": 106.702126,
  "name": "WM VCC HCM Đồng Khởi",
  "phone": "919446603",
  "province": "TP. Hồ Chí Minh",
  "ward": "P. Bến Nghé"
},
{
  "_id": {
    "$oid": "686f6003453f64991df3f612"
  },
  "chain": "winmart+",
  "store_id": "4935",
  "address": "339DE Nguyễn Cảnh Chân, Phường Cầu Kho, Quận 1, TP. Hồ Chí Minh Việt Nam",
  "district": "Q. 1",
  "lat": 10.757115,
  "lng": 106.68942,
  "name": "WIN HCM 339DE Nguyễn Cảnh Chân",
  "phone": "",
  "province": "TP. Hồ Chí Minh",
  "ward": "P. Cầu Kho"
},
{
  "_id": {
    "$oid": "686f6003453f64991df3f613"
  },
  "store_id": "2023",
  "chain": "winmart+",
  "address": "331C Trần Hưng Đạo, Phường Cô Giang, Quận 1, TP. Hồ Chí Minh Việt Nam",
  "district": "Q. 1",
  "lat": 10.761685,
  "lng": 106.69003,
  "name": "WIN HCM 331C Trần Hưng Đạo",
  "phone": "995007570",
  "province": "TP. Hồ Chí Minh",
  "ward": "P. Cô Giang"
},
{
  "_id": {
    "$oid": "686f6003453f64991df3f614"
  },
  "store_id": "4200",
  "chain": "winmart+",
  "address": "37 Hồ Hảo Hớn, P. Cô Giang, Q1, TP. Hồ Chí Minh Việt Nam",
  "district": "Q. 1",
  "lat": 10.761091,
  "lng": 106.689926,
  "name": "WM+ HCM 37 Hồ Hảo Hớn",
  "phone": "",
  "province": "TP. Hồ Chí Minh",
  "ward": "P. Cô Giang"
},
{
  "_id": {
    "$oid": "686f6004453f64991df3f615"
  },
  "chain": "winmart+",
  "store_id": "4915",
  "address": "0.01. Tầng trệt tháp 4, Sun Avenue 28 Mai Chí Thọ, Phường An Phú, Quận 2, TP. Hồ Chí Minh Việt Nam",
  "district": "Q. 2",
  "lat": 10.785154,
  "lng": 106.74528,
  "name": "WIN HCM 001 SAV4, CC Avenue",
  "phone": "",
  "province": "TP. Hồ Chí Minh",
  "ward": "P. An Phú"
},
{
  "_id": {
    "$oid": "686f6004453f64991df3f616"
  },
  "store_id": "4881",
  "chain": "winmart+",
  "address": "BTM1-3 BlockB tầng 1 (trệt), khu phố 3 Centana, 36 mai Chí Thọ, Phường An Phú, Quận 2, TP. Hồ Chí Minh Việt Nam",
  "district": "Q. 2",
  "lat": 10.790749,
  "lng": 106.75198,
  "name": "WIN HCM BTM1-3 Trệt Chung cư Centan",
  "phone": "",
  "province": "TP. Hồ Chí Minh",
  "ward": "P. An Phú"
},
{
  "_id": {
    "$oid": "686f6004453f64991df3f617"
  },
  "store_id": "4940",
  "chain": "winmart+",
  "address": "Tầng Trệt Cao ốc An Cư, số 8, đường Thái Thuận, P An Phú, Quận 2, TP. Hồ Chí Minh Việt Nam",
  "district": "Q. 2",
  "lat": 10.798172,
  "lng": 106.739204,
  "name": "WIN HCM CC An Cư",
  "phone": "",
  "province": "TP. Hồ Chí Minh",
  "ward": "P. An Phú"
},
{
  "_id": {
    "$oid": "686f6004453f64991df3f618"
  },
  "store_id": "2965",
  "chain": "winmart+",
  "address": "67 Mai Chí Thọ, Phường An Phú, Quận 2, TP. Hồ Chí Minh Việt Nam",
  "district": "Q. 2",
  "lat": 10.797936,
  "lng": 106.751656,
  "name": "WM+ HCM Cao ốc Lexington",
  "phone": "",
  "province": "TP. Hồ Chí Minh",
  "ward": "P. An Phú"
},
{
  "_id": {
    "$oid": "686f6004453f64991df3f619"
  },
  "store_id": "4239",
  "chain": "winmart+",
  "address": "Chung Cư Lexington, P. An Phú, Quận 2, TP. Hồ Chí Minh Việt Nam",
  "district": "Q. 2",
  "lat": 10.799091,
  "lng": 106.75187,
  "name": "WM+ HCM CC Lexington",
  "phone": "",
  "province": "TP. Hồ Chí Minh",
  "ward": "P. An Phú"
},
{
  "_id": {
    "$oid": "686f6005453f64991df3f61a"
  },
  "store_id": "6135",
  "chain": "winmart+",
  "address": "Số 01.05, Lô B, căn hộ B.01.05, Chung cư Bộ Công an, Số 83 đường số 3, P. Bình An, TP. Thủ Đức, TP. Hồ Chí Minh Việt Nam",
  "district": "Q. 2",
  "lat": 10.794817,
  "lng": 106.73661,
  "name": "WM+ HCM CC Bộ Công An, B01.05",
  "phone": "",
  "province": "TP. Hồ Chí Minh",
  "ward": "P. Bình An"
},
{
  "_id": {
    "$oid": "686f6005453f64991df3f61b"
  },
  "chain": "winmart+",
  "store_id": "5591",
  "address": "VE-S06, Tầng Trệt Khu Thương Mại Tòa nhà Venice, KDC New City, 17 Mai Chí Thọ, Phường Bình Khánh, Quận 2, Tp. Hồ Chí Minh Việt Nam",
  "district": "Q. 2",
  "lat": 10.781474,
  "lng": 106.735466,
  "name": "WIN HCM VE-S06, KDC New City",
  "phone": "",
  "province": "TP. Hồ Chí Minh",
  "ward": "P. Bình Khánh"
},
{
  "_id": {
    "$oid": "686f6005453f64991df3f61c"
  },
  "store_id": "6992",
  "chain": "winmart+",
  "address": "Lô thương mại SH21 thuộc chung cư cao cấp Homyland Riverside, số 14 đường số 1, P. Bình Trưng Đông, TP. Thủ Đức TP. Hồ Chí Minh Việt Nam",
  "district": "Q. 2",
  "lat": 10.789678,
  "lng": 106.76841,
  "name": "WIN HCM SH21, CC Homyland Riverside",
  "phone": "",
  "province": "TP. Hồ Chí Minh",
  "ward": "P. Bình Trưng Đông"
},
{
  "_id": {
    "$oid": "686f6005453f64991df3f61d"
  },
  "store_id": "3157",
  "chain": "winmart+",
  "address": "537 Nguyễn Duy Trinh, Phường Bình Trưng Đông, Quận 2, TP. Hồ Chí Minh Việt Nam",
  "district": "Q. 2",
  "lat": 10.7899,
  "lng": 106.771,
  "name": "WM+ HCM 537 Nguyễn Duy Trinh",
  "phone": "",
  "province": "TP. Hồ Chí Minh",
  "ward": "P. Bình Trưng Đông"
},
{
  "_id": {
    "$oid": "686f6006453f64991df3f61e"
  },
  "store_id": "5387",
  "chain": "winmart+",
  "address": "51A Nguyễn Tuyển, KP5, Phường Bình Trưng Tây, Quận 2, TP. Hồ Chí Minh Việt Nam",
  "district": "Q. 2",
  "lat": 10.7845,
  "lng": 106.765,
  "name": "WIN HCM 51A Nguyễn Tuyển",
  "phone": "",
  "province": "TP. Hồ Chí Minh",
  "ward": "P. Bình Trưng Tây"
},
{
  "_id": {
    "$oid": "686f6006453f64991df3f61f"
  },
  "store_id": "5231",
  "chain": "winmart+",
  "address": "T1.04 tầng trệt Khối 04 (LA3) 383-385 Nguyễn Duy Trinh, Phường Bình Trưng Tây, Quận 2, TP. Hồ Chí Minh Việt Nam",
  "district": "Q. 2",
  "lat": 10.7889,
  "lng": 106.768,
  "name": "WIN HCM T1.04 Tòa nhà La Astoria",
  "phone": "",
  "province": "TP. Hồ Chí Minh",
  "ward": "P. Bình Trưng Tây"
},
{
  "_id": {
    "$oid": "686f6006453f64991df3f620"
  },
  "chain": "winmart+",
  "store_id": "6036",
  "address": "232 Lê Văn Thịnh, KP. 1, P. Cát Lái, TP. Thủ Đức, TP. Hồ Chí Minh Việt Nam",
  "district": "Q. 2",
  "lat": 10.777393,
  "lng": 106.76739,
  "name": "WIN HCM 232 Lê Văn Thịnh",
  "phone": "",
  "province": "TP. Hồ Chí Minh",
  "ward": "P. Cát Lái"
},
{
  "_id": {
    "$oid": "686f6006453f64991df3f621"
  },
  "store_id": "6057",
  "chain": "winmart+",
  "address": "Căn 0.01, 0.28, 0.29 - CC H1-04, số 1-3 đường 35 CL, Khu Dân Cư Cát Lái, P. Cát Lái, TP. Thủ Đức, TP. Hồ Chí Minh Việt Nam",
  "district": "Q. 2",
  "lat": 10.766854,
  "lng": 106.78361,
  "name": "WIN HCM H1-04, căn 0.01, 0.28,",
  "phone": "",
  "province": "TP. Hồ Chí Minh",
  "ward": "P. Cát Lái"
},
{
  "_id": {
    "$oid": "686f6007453f64991df3f622"
  },
  "store_id": "6709",
  "chain": "winmart+",
  "address": "34 Tạ Hiện, P. Thạnh Mỹ Lợi, TP. Thủ Đức (Q. 2 cũ), TP. Hồ Chí Minh Việt Nam",
  "district": "Q. 2",
  "lat": 10.776623,
  "lng": 106.75167,
  "name": "WIN HCM 34 Tạ Hiện",
  "phone": "",
  "province": "TP. Hồ Chí Minh",
  "ward": "P. Thạnh Mỹ Lợi"
},
{
  "_id": {
    "$oid": "686f6007453f64991df3f623"
  },
  "store_id": "2AP6",
  "chain": "winmart+",
  "address": "A-0.07, Tầng Trệt tại Chung cư Thủ Thiêm Dragon, số 55 đường Quách Giai, P. Thạnh Mỹ Lợi, TP. Hồ Chí Minh Việt Nam",
  "district": "Q. 2",
  "lat": 10.762424,
  "lng": 106.75885,
  "name": "WIN HCM A-0.07, CC Thủ Thiêm Dragon",
  "phone": "",
  "province": "TP. Hồ Chí Minh",
  "ward": "P. Thạnh Mỹ Lợi"
},
{
  "_id": {
    "$oid": "686f6007453f64991df3f624"
  },
  "store_id": "4366",
  "chain": "winmart+",
  "address": "237 Nguyễn Văn Hưởng, P. Thảo Điền, Quận 2, TP. Hồ Chí Minh Việt Nam",
  "district": "Q. 2",
  "lat": 10.8098,
  "lng": 106.732,
  "name": "WIN HCM CC 237 Nguyễn Văn Hưởng",
  "phone": "",
  "province": "TP. Hồ Chí Minh",
  "ward": "P. Thảo Điền"
},
{
  "_id": {
    "$oid": "686f6007453f64991df3f625"
  },
  "store_id": "4235",
  "chain": "winmart+",
  "address": "Tầng 1 Lô A CC XI Riverview 190 Nguyễn Văn Hưởng, P. Thảo Điền, Quận 2, TP. Hồ Chí Minh Việt Nam",
  "district": "Q. 2",
  "lat": 10.81699,
  "lng": 106.730286,
  "name": "WIN HCM Tầng 1 Lô A, CC XI Rivervie",
  "phone": "",
  "province": "TP. Hồ Chí Minh",
  "ward": "P. Thảo Điền"
},
{
  "_id": {
    "$oid": "686f6007453f64991df3f626"
  },
  "store_id": "2026",
  "chain": "winmart+",
  "address": "Căn hộ B01-08, tầng trệt Khu căn hộ, Hoàng Anh River view, 37 Nguyễn, Văn Hưởng, P. Thảo Điền, Q. 2, TP. Hồ Chí Minh Việt Nam",
  "district": "Q. 2",
  "lat": 10.8046,
  "lng": 106.727,
  "name": "WM+ HCM Hoàng Anh River View",
  "phone": "909383230",
  "province": "TP. Hồ Chí Minh",
  "ward": "P. Thảo Điền"
},
{
  "_id": {
    "$oid": "686f6008453f64991df3f627"
  },
  "chain": "winmart+",
  "store_id": "4662",
  "address": "B1.03, Tầng 1+2, Block B, Khu liên hợp cao ốc TTTM-, văn phòng và căn hộ, 177 Xa lộ Hà Nội, phường Thảo Điền, Quận 2, TP. Hồ Chí Minh Việt Nam",
  "district": "Q. 2",
  "lat": 10.8034,
  "lng": 106.746,
  "name": "WM+ HCM Tầng 1+2B Gateway Thảo Điền",
  "phone": "",
  "province": "TP. Hồ Chí Minh",
  "ward": "P. Thảo Điền"
},
{
  "_id": {
    "$oid": "686f6008453f64991df3f628"
  },
  "chain": "winmart+",
  "store_id": "3758",
  "address": "82 Lý Phục Man, Phường Bình Thuận, Quận 7, TP. Hồ Chí Minh Việt Nam",
  "district": "Q. 7",
  "lat": 10.7432,
  "lng": 106.726,
  "name": "WIN HCM 82 Lý Phục Man",
  "phone": "",
  "province": "TP. Hồ Chí Minh",
  "ward": "P. Bình Thuận"
},
{
  "_id": {
    "$oid": "686f6008453f64991df3f629"
  },
  "chain": "winmart+",
  "store_id": "3016",
  "address": "EB4-01-02A tầng trệt Block B4,khu tái, định cư Phú Mỹ(The Era Town), P. Phú Mỹ, Quận 7, TP. Hồ Chí Minh Việt Nam",
  "district": "Q. 7",
  "lat": 10.699907,
  "lng": 106.731094,
  "name": "WIN HCM The Era Town",
  "phone": "",
  "province": "TP. Hồ Chí Minh",
  "ward": "P. Phú Mỹ"
},
{
  "_id": {
    "$oid": "686f6008453f64991df3f62a"
  },
  "store_id": "6060",
  "chain": "winmart+",
  "address": "54 Lô L, Đường số 7, KDC Phú Mỹ, P. Phú Mỹ, Q. 7, (Thửa 930, TBĐ 2) TP. Hồ Chí Minh Việt Nam",
  "district": "Q. 7",
  "lat": 10.713941,
  "lng": 106.73272,
  "name": "WM+ HCM 54 Lô L, Đường số 7",
  "phone": "",
  "province": "TP. Hồ Chí Minh",
  "ward": "P. Phú Mỹ"
},
{
  "_id": {
    "$oid": "686f6009453f64991df3f62b"
  },
  "store_id": "6463",
  "chain": "winmart+",
  "address": "Tầng trệt lô E mã E1-09 Tòa nhà Belleza, Phạm Hữu Lầu, P. Phú Mỹ, Q. 7, TP. Hồ Chí Minh Việt Nam",
  "district": "Q. 7",
  "lat": 10.706771,
  "lng": 106.726425,
  "name": "WM+ HCM E1-09, CC Belleza",
  "phone": "",
  "province": "TP. Hồ Chí Minh",
  "ward": "P. Phú Mỹ"
},
{
  "_id": {
    "$oid": "686f6009453f64991df3f62c"
  },
  "chain": "winmart+",
  "store_id": "2A12",
  "address": "EA4-01-06, Tầng trệt, Block A4, dự án Khu tái định cư Phú Mỹ-The Era Town, Đ.15B, P. Phú Mỹ, Q. 7 TP. Hồ Chí Minh Việt Nam",
  "district": "Q. 7",
  "lat": 10.700734,
  "lng": 106.73334,
  "name": "WM+ HCM EA4-01-06, CC Era Town",
  "phone": "",
  "province": "TP. Hồ Chí Minh",
  "ward": "P. Phú Mỹ"
},
{
  "_id": {
    "$oid": "686f6009453f64991df3f62d"
  },
  "store_id": "4100",
  "chain": "winmart+",
  "address": "1-3 N1, KDC Phường Phú Thuận (La casa), Phường Phú Thuận, Quận 7, TP. Hồ Chí Minh Việt Nam",
  "district": "Q. 7",
  "lat": 10.715358,
  "lng": 106.74268,
  "name": "WIN HCM 1-3 N1, KDC P.Phú Thuận",
  "phone": "",
  "province": "TP. Hồ Chí Minh",
  "ward": "P. Phú Thuận"
},
{
  "_id": {
    "$oid": "686f6009453f64991df3f62e"
  },
  "chain": "winmart+",
  "store_id": "4250",
  "address": "84 Gò Ô Môi, KP2, Phường Phú Thuận, Q7, TP. Hồ Chí Minh Việt Nam",
  "district": "Q. 7",
  "lat": 10.729464,
  "lng": 106.73509,
  "name": "WIN HCM 84 Gò Ô Môi",
  "phone": "",
  "province": "TP. Hồ Chí Minh",
  "ward": "P. Phú Thuận"
},
{
  "_id": {
    "$oid": "686f600a453f64991df3f62f"
  },
  "chain": "winmart+",
  "store_id": "3078",
  "address": "B3&B4&B5 tầng 1, Block 1B khu phức hợp, La Casa, số 89 Hoàng Quốc Việt, Quận 7, TP. Hồ Chí Minh Việt Nam",
  "district": "Q. 7",
  "lat": 10.715793,
  "lng": 106.740685,
  "name": "WIN HCM 89 Hoàng Quốc Việt",
  "phone": "",
  "province": "TP. Hồ Chí Minh",
  "ward": "P. Phú Thuận"
},
{
  "_id": {
    "$oid": "686f600a453f64991df3f630"
  },
  "store_id": "4073",
  "chain": "winmart+",
  "address": "Lô thương mại BS6-BS7 Tầng trệt-Lửng tại Dự án KHu nhà ở, Thuộc Lô A1- Dự án khu nhà ở Him Lam, phường Tân Hưng, Quận 7, TP. Hồ Chí Minh Việt Nam",
  "district": "Q. 7",
  "lat": 10.744883,
  "lng": 106.695045,
  "name": "WIN HCM BS6-BS7 khu nhà ở Him Lam",
  "phone": "",
  "province": "TP. Hồ Chí Minh",
  "ward": "P. Phú Thuận"
},
{
  "_id": {
    "$oid": "686f600a453f64991df3f631"
  },
  "store_id": "4383",
  "chain": "winmart+",
  "address": "Lô N1, Tháp M2 - Tháp Nam, KDC, P.Bắc Rạch Bà Bướm (Jamona, City), Đào Trí, P.Phú Thuận, Q.7, TP. Hồ Chí Minh Việt Nam",
  "district": "Q. 7",
  "lat": 10.735872,
  "lng": 106.7389,
  "name": "WIN HCM CC Jamona 1 - N1",
  "phone": "",
  "province": "TP. Hồ Chí Minh",
  "ward": "P. Phú Thuận"
},
{
  "_id": {
    "$oid": "686f600a453f64991df3f632"
  },
  "chain": "winmart+",
  "store_id": "4384",
  "address": "Lô B2, tháp M1, Tháp Bắc, Tòa nhà, Jamona City, Đường Đào Trí, P.Phú Thuận, Q.7, TP. Hồ Chí Minh Việt Nam",
  "district": "Q. 7",
  "lat": 10.736806,
  "lng": 106.73867,
  "name": "WIN HCM CC Jamona 2 - B2",
  "phone": "",
  "province": "TP. Hồ Chí Minh",
  "ward": "P. Phú Thuận"
},
{
  "_id": {
    "$oid": "686f600a453f64991df3f633"
  },
  "chain": "winmart+",
  "store_id": "4132",
  "address": "C2 Cao Thị Chính, Phường Phú Thuận, quận 7, TP. Hồ Chí Minh Việt Nam",
  "district": "Q. 7",
  "lat": 10.7319,
  "lng": 106.735,
  "name": "WM+ HCM Thửa 526, P. Phú Thuận",
  "phone": "",
  "province": "TP. Hồ Chí Minh",
  "ward": "P. Phú Thuận"
},
{
  "_id": {
    "$oid": "686f600b453f64991df3f634"
  },
  "chain": "winmart+",
  "store_id": "4281",
  "address": "002 Tầng trệt Block V4, Sunrise City- South, 23 Nguyễn Hữu Thọ, P. Tân Hưng, Q. 7, TP. Hồ Chí Minh Việt Nam",
  "district": "Q. 7",
  "lat": 10.7396,
  "lng": 106.7,
  "name": "WIN HCM 002 Tầng trệt CC Sunrise",
  "phone": "",
  "province": "TP. Hồ Chí Minh",
  "ward": "P. Tân Hưng"
},
{
  "_id": {
    "$oid": "686f600b453f64991df3f635"
  },
  "store_id": "2929",
  "chain": "winmart+",
  "address": "A01-08, tầng 1, block A, Khu căn hộ, Hoàng Anh Thanh Bình, đường số 17, P. Tân Hưng, Q. 7, TP. Hồ Chí Minh Việt Nam",
  "district": "Q. 7",
  "lat": 10.745399,
  "lng": 106.6987,
  "name": "WIN HCM A01-08 Hoàng Anh Thanh Bình",
  "phone": "",
  "province": "TP. Hồ Chí Minh",
  "ward": "P. Tân Hưng"
},
{
  "_id": {
    "$oid": "686f600b453f64991df3f636"
  },
  "chain": "winmart+",
  "store_id": "2043",
  "address": "A1.01 CC Hoàng Anh 2 - 783 Trần Xuâ, n Soạn, Phường Tân Hưng, Quận 7, Quận 7, TP. Hồ Chí Minh Việt Nam",
  "district": "Q. 7",
  "lat": 10.751242,
  "lng": 106.699394,
  "name": "WM+ HCM Hoàng Anh 2",
  "phone": "918859173",
  "province": "TP. Hồ Chí Minh",
  "ward": "P. Tân Hưng"
},
{
  "_id": {
    "$oid": "686f600b453f64991df3f637"
  },
  "store_id": "4330",
  "chain": "winmart+",
  "address": "SCB 01-21 tại dự án Sunrise Cityview số 33, Nguyễn Hữu Thọ, p Tân Hưng, q 7, TP. Hồ Chí Minh Việt Nam",
  "district": "Q. 7",
  "lat": 10.745488,
  "lng": 106.70082,
  "name": "WM+ HCM SCB-01-21 Sunrise City view",
  "phone": "",
  "province": "TP. Hồ Chí Minh",
  "ward": "P. Tân Hưng"
},
{
  "_id": {
    "$oid": "686f600c453f64991df3f638"
  },
  "store_id": "3135",
  "chain": "winmart+",
  "address": "35/12 Bế Văn Cấm, P. Tân Kiểng, Quận 7, TP. Hồ Chí Minh Việt Nam",
  "district": "Q. 7",
  "lat": 10.750188,
  "lng": 106.71119,
  "name": "WM+ HCM M-One Nam Sài Gòn",
  "phone": "",
  "province": "TP. Hồ Chí Minh",
  "ward": "P. Tân Kiểng"
},
{
  "_id": {
    "$oid": "686f600c453f64991df3f639"
  },
  "store_id": "1681",
  "chain": "winmart",
  "address": "36/25 Phạm Văn Nghị, Sky Garden 3, P. Tân Phong, Q. 7, TP. Hồ Chí Minh Việt Nam",
  "district": "Q. 7",
  "lat": 10.732091,
  "lng": 106.70594,
  "name": "WM HCM Hưng Gia",
  "phone": "0559701681",
  "province": "TP. Hồ Chí Minh",
  "ward": "P. Tân Phong"
},
{
  "_id": {
    "$oid": "686f600c453f64991df3f63a"
  },
  "store_id": "5786",
  "chain": "winmart+",
  "address": "1016/28 (Khu Sky Garden 2-R1-2), Khu phố 3, P. Tân Phong, Q.7 TP. Hồ Chí Minh Việt Nam",
  "district": "Q. 7",
  "lat": 10.7308855,
  "lng": 106.70594,
  "name": "WM+ HCM 1016/28- Khu Sky Garden 2-R",
  "phone": "",
  "province": "TP. Hồ Chí Minh",
  "ward": "P. Tân Phong"
},
{
  "_id": {
    "$oid": "686f600c453f64991df3f63b"
  },
  "chain": "winmart+",
  "store_id": "6350",
  "address": "22 - G4 Đường 53, P. Tân Phong, Q. P.Tân Phong, Q.7, TP. Hồ Chí Minh Việt Nam",
  "district": "Q. 7",
  "lat": 10.737396,
  "lng": 106.70811,
  "name": "WM+ HCM 22 – G4 Đường 53",
  "phone": "",
  "province": "TP. Hồ Chí Minh",
  "ward": "P. Tân Phong"
},
{
  "_id": {
    "$oid": "686f600d453f64991df3f63c"
  },
  "chain": "winmart+",
  "store_id": "3894",
  "address": "876 Huỳnh Tấn Phát, Phường Tân Phú, Quận 7, TP. Hồ Chí Minh Việt Nam",
  "district": "Q. 7",
  "lat": 10.728398,
  "lng": 106.73264,
  "name": "WIN HCM 876 Huỳnh Tấn Phát",
  "phone": "",
  "province": "TP. Hồ Chí Minh",
  "ward": "P. Tân Phú"
},
{
  "_id": {
    "$oid": "686f600d453f64991df3f63d"
  },
  "chain": "winmart+",
  "store_id": "3084",
  "address": "K0.04 Lô K, tầng 1, Chung cư K, KDC City Land, 99 Nguyễn Thị Thập, P. Tân Phú, Quận 7, TP. Hồ Chí Minh Việt Nam",
  "district": "Q. 7",
  "lat": 10.73539,
  "lng": 106.726685,
  "name": "WIN HCM 99 Nguyễn Thị Thập",
  "phone": "",
  "province": "TP. Hồ Chí Minh",
  "ward": "P. Tân Phú"
},
{
  "_id": {
    "$oid": "686f600d453f64991df3f63e"
  },
  "chain": "winmart+",
  "store_id": "2AHZ",
  "address": "Cửa hàng số 34, Tầng 1 (tầng trệt), Q. 7 TP. Hồ Chí Minh Việt Nam",
  "district": "Q. 7",
  "lat": 10.723373,
  "lng": 106.727486,
  "name": "WIN HCM CH số 34, tầng 1-CC Midtown",
  "phone": "",
  "province": "TP. Hồ Chí Minh",
  "ward": "P. Tân Phú"
},
{
  "_id": {
    "$oid": "686f600e453f64991df3f63f"
  },
  "store_id": "2503",
  "chain": "winmart+",
  "address": "Khu Phố Cảnh Viên, P. Tân Phú, Quận 7, TP. Hồ Chí Minh Việt Nam",
  "district": "Q. 7",
  "lat": 10.722384,
  "lng": 106.729645,
  "name": "WIN HCM Khu Phố Cảnh Viên",
  "phone": "",
  "province": "TP. Hồ Chí Minh",
  "ward": "P. Tân Phú"
},
{
  "_id": {
    "$oid": "686f600e453f64991df3f640"
  },
  "chain": "winmart+",
  "store_id": "2AF4",
  "address": "136 Lâm Văn Bền, P. Tân Quy, Q. 7 TP. Hồ Chí Minh Việt Nam",
  "district": "Q. 7",
  "lat": 10.743425,
  "lng": 106.71576,
  "name": "WIN HCM 136 Lâm Văn Bền",
  "phone": "",
  "province": "TP. Hồ Chí Minh",
  "ward": "P. Tân Quy"
},
{
  "_id": {
    "$oid": "686f600e453f64991df3f641"
  },
  "store_id": "1597",
  "chain": "winmart",
  "address": "VC+ KĐT Nam Long Số 71,Trần Trọng, Cung, P. Tân Thuận Đông, TP. Hồ Chí Minh Việt Nam",
  "district": "Q. 7",
  "lat": 10.745507,
  "lng": 106.73004,
  "name": "WM VC+ HCM Nam Long",
  "phone": "0559701597",
  "province": "TP. Hồ Chí Minh",
  "ward": "P. Tân Thuận Đông"
},
{
  "_id": {
    "$oid": "686f600e453f64991df3f642"
  },
  "chain": "winmart+",
  "store_id": "2ABG",
  "address": "1.11, Tầng 1, Khu phức hợp TMDV và Nhà ở, số 16/9 Bùi Văn Ba, P. Tân Thuận Đông Q. 7, TP. Hồ Chí Minh Việt Nam",
  "district": "Q. 7",
  "lat": 10.750268,
  "lng": 106.73543,
  "name": "WIN HCM 1.11, 16/9 Bùi Văn Ba",
  "phone": "",
  "province": "TP. Hồ Chí Minh",
  "ward": "P. Tân Thuận Đông"
},
{
  "_id": {
    "$oid": "686f600f453f64991df3f643"
  },
  "chain": "winmart+",
  "store_id": "4382",
  "address": "167 Trần Trọng Cung, P. Tân Thuận, Đông, Q7, TP. Hồ Chí Minh Việt Nam",
  "district": "Q. 7",
  "lat": 10.74369,
  "lng": 106.73626,
  "name": "WIN HCM CC Ehome Trần Trọng Cung",
  "phone": "",
  "province": "TP. Hồ Chí Minh",
  "ward": "P. Tân Thuận Đông"
},
{
  "_id": {
    "$oid": "686f600f453f64991df3f644"
  },
  "chain": "winmart+",
  "store_id": "5822",
  "address": "Tòa HR1, Eco Green Sài Gòn, Đường Nguyễn Văn Linh, P. Bình Thuận và P. Tân Thuận Tây, Q 7, TP. Hồ Chí Minh Việt Nam",
  "district": "Q. 7",
  "lat": 10.748992,
  "lng": 106.723114,
  "name": "WIN HCM HR1SH1 Chung cư Eco Green",
  "phone": "",
  "province": "TP. Hồ Chí Minh",
  "ward": "P. Tân Thuận Tây"
},
{
  "_id": {
    "$oid": "686f600f453f64991df3f645"
  },
  "store_id": "6518",
  "chain": "winmart+",
  "address": "HR2SH21 -HR2SH22, CC Eco Green, Đ. Nguyễn Văn Linh, P. Tân Thuận Tây, Q.7, TP. Hồ Chí Minh Việt Nam",
  "district": "Q. 7",
  "lat": 10.748146,
  "lng": 106.72325,
  "name": "WIN HCM HR2SH21-22, CC Eco Green",
  "phone": "",
  "province": "TP. Hồ Chí Minh",
  "ward": "P. Tân Thuận Tây"
},
{
  "_id": {
    "$oid": "686f600f453f64991df3f646"
  },
  "store_id": "1567",
  "chain": "winmart",
  "address": "50 Lê Văn Việt P. Hiệp Phú Q. 9, TP. Hồ Chí Minh Việt Nam",
  "district": "Q. 9",
  "lat": 10.845468,
  "lng": 106.7787,
  "name": "WM VCP HCM Lê Văn Việt",
  "phone": "0559701567",
  "province": "TP. Hồ Chí Minh",
  "ward": "P. Hiệp Phú"
},
{
  "_id": {
    "$oid": "686f6010453f64991df3f647"
  },
  "chain": "winmart+",
  "store_id": "5657",
  "address": "1.12 - 1.12B, Tầng 1, Lô B, Khu căn hộ Sài Gòn Gateway, 702 Xa lộ Hà Nội (Quốc lộ 52 cũ), Khu phố 1, P. Hiệp Phú, TP Thủ Đức TP HCM Việt Nam",
  "district": "Q. 9",
  "lat": 10.843743,
  "lng": 106.771866,
  "name": "WM+ HCM 1.12-1.12B Lô B Sài Gòn Gat",
  "phone": "",
  "province": "TP. Hồ Chí Minh",
  "ward": "P. Hiệp Phú"
},
{
  "_id": {
    "$oid": "686f6010453f64991df3f648"
  },
  "chain": "winmart+",
  "store_id": "6875",
  "address": "01.04 Tòa S7.02, Vinhomes Grand Park, 88 Phước Thiện, P. Long Bình, TP. Thủ Đức TP. Hồ Chí Minh Việt Nam",
  "district": "Q. 9",
  "lat": 10.844066,
  "lng": 106.83673,
  "name": "WIN HCM S7.02-01.04 Vinhomes Grand",
  "phone": "",
  "province": "TP. Hồ Chí Minh",
  "ward": "P. Long Bình"
},
{
  "_id": {
    "$oid": "686f6010453f64991df3f649"
  },
  "chain": "winmart+",
  "store_id": "6886",
  "address": "01.04 Tòa S10.03, Vinhomes Grand Park, 88 Phước Thiện, P. Long Bình, TP. Thủ Đức TP. Hồ Chí Minh Việt Nam",
  "district": "Q. 9",
  "lat": 10.846861,
  "lng": 106.83907,
  "name": "WM+ HCM S10.03-01.04 Vinhomes Grand",
  "phone": "",
  "province": "TP. Hồ Chí Minh",
  "ward": "P. Long Bình"
},
{
  "_id": {
    "$oid": "686f6010453f64991df3f64a"
  },
  "store_id": "6606",
  "chain": "winmart+",
  "address": "01.05 Tòa S6.05, Vinhomes Grand Park, 88 Phước Thiện, P. Long Thạnh Mỹ và P. Long Bình, TP. Thủ Đức TP. Hồ Chí Minh Việt Nam",
  "district": "Q. 9",
  "lat": 10.843947,
  "lng": 106.83928,
  "name": "WM+ HCM S6.05-01.05 Vinhomes Grand",
  "phone": "",
  "province": "TP. Hồ Chí Minh",
  "ward": "P. Long Bình"
},
{
  "_id": {
    "$oid": "686f6010453f64991df3f64b"
  },
  "chain": "winmart+",
  "store_id": "2A10",
  "address": "01.17 Tòa S7.01, Vinhomes Grand Park, 88 Phước Thiện, P. Long Bình, TP. Thủ Đức (Q. 9 cũ) TP. Hồ Chí Minh Việt Nam",
  "district": "Q. 9",
  "lat": 10.843019,
  "lng": 106.83744,
  "name": "WM+ HCM S7.01-01.17 Vinhomes Grand",
  "phone": "",
  "province": "TP. Hồ Chí Minh",
  "ward": "P. Long Bình"
},
{
  "_id": {
    "$oid": "686f6011453f64991df3f64c"
  },
  "store_id": "6461",
  "chain": "winmart+",
  "address": "01.17 tòa S9.01 Vinhomes Grand Park, 88 Đ. Phước Thiện, KP. Phước Thiện, P. Long Bình, TP. Thủ Đức, TP. Hồ Chí Minh Việt Nam",
  "district": "Q. 9",
  "lat": 10.845001,
  "lng": 106.836685,
  "name": "WM+ HCM S9.01-01.17 Vinhomes Grand",
  "phone": "",
  "province": "TP. Hồ Chí Minh",
  "ward": "P. Long Bình"
},
{
  "_id": {
    "$oid": "686f6011453f64991df3f64d"
  },
  "chain": "winmart+",
  "store_id": "4091",
  "address": "217A Long Phước, Ấp Long Thuận, Phường Long Phước, Quận 9, TP. Hồ Chí Minh Việt Nam",
  "district": "Q. 9",
  "lat": 10.8121,
  "lng": 106.86,
  "name": "WM+ HCM 217A Long Phước",
  "phone": "",
  "province": "TP. Hồ Chí Minh",
  "ward": "P. Long Phước"
},
{
  "_id": {
    "$oid": "686f6011453f64991df3f64e"
  },
  "store_id": "6001",
  "chain": "winmart+",
  "address": "Tòa S1.06 Khu A– DA Khu Phước Thiện, 512 Nguyễn Xiển, KP. Long Hòa, P. Long Thạnh Mỹ, TP. Thủ Đức TP. Hồ Chí Minh Việt Nam",
  "district": "Q. 9",
  "lat": 10.838342,
  "lng": 106.83129,
  "name": "WM+ HCM 1.04-S1.06 Vinhomes Grand P",
  "phone": "",
  "province": "TP. Hồ Chí Minh",
  "ward": "P. Long Thạnh Mỹ"
},
{
  "_id": {
    "$oid": "686f6011453f64991df3f64f"
  },
  "chain": "winmart+",
  "store_id": "6705",
  "address": "Shop 01.17, CC S3.05 Khu A, 512 Nguyễn Xiển, P. Long Thạnh Mỹ, TP. Thủ Đức TP. Hồ Chí Minh Việt Nam",
  "district": "Q. 9",
  "lat": 10.838447,
  "lng": 106.83447,
  "name": "WM+ HCM S3.05-01.17 Vinhomes Grand",
  "phone": "",
  "province": "TP. Hồ Chí Minh",
  "ward": "P. Long Thạnh Mỹ"
},
{
  "_id": {
    "$oid": "686f6012453f64991df3f650"
  },
  "store_id": "4405",
  "chain": "winmart+",
  "address": "81B Lã Xuân Oai, Phường Long Trường, Quận 9, TP. Hồ Chí Minh Việt Nam",
  "district": "Q. 9",
  "lat": 10.824745,
  "lng": 106.807594,
  "name": "WM+ HCM 81B Lã Xuân Oai",
  "phone": "",
  "province": "TP. Hồ Chí Minh",
  "ward": "P. Long Trường"
},
{
  "_id": {
    "$oid": "686f6012453f64991df3f651"
  },
  "chain": "winmart+",
  "store_id": "6009",
  "address": "1.22-TMDV, Tầng 1, Tháp A, Khu nhà ở Saphire, 454 Võ Chí Công, KP. 2, P. Phú Hữu, TP. Thủ Đức, TP. Hồ Chí Minh Việt Nam",
  "district": "Q. 9",
  "lat": 10.801285,
  "lng": 106.79381,
  "name": "WIN HCM 1.22-TMDV Tầng 1 Tháp A, Sa",
  "phone": "",
  "province": "TP. Hồ Chí Minh",
  "ward": "P. Phú Hữu"
},
{
  "_id": {
    "$oid": "686f6012453f64991df3f652"
  },
  "store_id": "4320",
  "chain": "winmart+",
  "address": "85-87 đường số 6, KDC Phường Phú Hữu, Quận 9, TP. Hồ Chí Minh Việt Nam",
  "district": "Q. 9",
  "lat": 10.804,
  "lng": 106.791,
  "name": "WIN HCM 85-87 đường số 6",
  "phone": "",
  "province": "TP. Hồ Chí Minh",
  "ward": "P. Phú Hữu"
},
{
  "_id": {
    "$oid": "686f6012453f64991df3f653"
  },
  "chain": "winmart+",
  "store_id": "3386",
  "address": "909 Nguyễn Duy Trinh, Phường Phú Hữu, Quận 9, TP. Hồ Chí Minh Việt Nam",
  "district": "Q. 9",
  "lat": 10.791461,
  "lng": 106.79938,
  "name": "WIN HCM 909 Nguyễn Duy Trinh",
  "phone": "",
  "province": "TP. Hồ Chí Minh",
  "ward": "P. Phú Hữu"
},
{
  "_id": {
    "$oid": "686f6012453f64991df3f654"
  },
  "store_id": "4937",
  "chain": "winmart+",
  "address": "A01 –TMDV01-02 cao ốc Jamila, 60 đường 697, KP2, Phường Phú Hữu, Quận 9, TP. Hồ Chí Minh Việt Nam",
  "district": "Q. 9",
  "lat": 10.795585,
  "lng": 106.784645,
  "name": "WIN HCM Jamila Khang Điền",
  "phone": "",
  "province": "TP. Hồ Chí Minh",
  "ward": "P. Phú Hữu"
},
{
  "_id": {
    "$oid": "686f6013453f64991df3f655"
  },
  "store_id": "5334",
  "chain": "winmart+",
  "address": "1042 Nguyễn Duy Trinh, Phường Long Trường, Quận 9, TP. Hồ Chí Minh Việt Nam",
  "district": "Q. 9",
  "lat": 10.799388,
  "lng": 106.80924,
  "name": "WM+ HCM 1042 Nguyễn Duy Trinh",
  "phone": "",
  "province": "TP. Hồ Chí Minh",
  "ward": "P. Phú Hữu"
},
{
  "_id": {
    "$oid": "686f6013453f64991df3f656"
  },
  "store_id": "5557",
  "chain": "winmart+",
  "address": "A.0.03A và A.0.05, Tầng G, Tháp A, Chung cư Bảo Minh Ezland, (HAUSNEO), Số 2 Đường 11, Khu phố 2, Phường Phú Hữu, Quận 9, TP. Hồ Chí Minh Việt Nam",
  "district": "Q. 9",
  "lat": 10.8009,
  "lng": 106.789,
  "name": "WM+ HCM CC Bảo Minh Ezland (HAUSNEO",
  "phone": "",
  "province": "TP. Hồ Chí Minh",
  "ward": "P. Phú Hữu"
},
{
  "_id": {
    "$oid": "686f6013453f64991df3f657"
  },
  "store_id": "6831",
  "chain": "winmart+",
  "address": "174 Dương Đình Hội, P. Phước Long B, TP. Thủ Đức (Q. 9 cũ) TP. Hồ Chí Minh Việt Nam",
  "district": "Q. 9",
  "lat": 10.825144,
  "lng": 106.78029,
  "name": "WIN HCM 174 Dương Đình Hội",
  "phone": "",
  "province": "TP. Hồ Chí Minh",
  "ward": "P. Phước Long B"
},
{
  "_id": {
    "$oid": "686f6013453f64991df3f658"
  },
  "chain": "winmart+",
  "store_id": "3740",
  "address": "355A Đường Đỗ Xuân Hợp, KP5, Phường Phước Long B, Quận 9, TP. Hồ Chí Minh Việt Nam",
  "district": "Q. 9",
  "lat": 10.8214,
  "lng": 106.772,
  "name": "WIN HCM 355A Đỗ Xuân Hợp",
  "phone": "",
  "province": "TP. Hồ Chí Minh",
  "ward": "P. Phước Long B"
},
{
  "_id": {
    "$oid": "686f6014453f64991df3f659"
  },
  "chain": "winmart+",
  "store_id": "3242",
  "address": "Nhà số 4 đường D7 (khu nhà ở Nam Long MR), khu phố 6, Phường Phước Long B, Quận 9, TP. Hồ Chí Minh Việt Nam",
  "district": "Q. 9",
  "lat": 10.811106,
  "lng": 106.78566,
  "name": "WIN HCM 4 đường D7",
  "phone": "",
  "province": "TP. Hồ Chí Minh",
  "ward": "P. Phước Long B"
},
{
  "_id": {
    "$oid": "686f6014453f64991df3f65a"
  },
  "chain": "winmart+",
  "store_id": "3456",
  "address": "77 A Dương Đình Hội, Phước Long B, Quận 9, TP. Hồ Chí Minh Việt Nam",
  "district": "Q. 9",
  "lat": 10.819,
  "lng": 106.777,
  "name": "WIN HCM 77A Dương Đình Hội",
  "phone": "",
  "province": "TP. Hồ Chí Minh",
  "ward": "P. Phước Long B"
},
{
  "_id": {
    "$oid": "686f6014453f64991df3f65b"
  },
  "store_id": "3259",
  "chain": "winmart+",
  "address": "Khu TM tầng 1 Block A Chung Cư Flora, tại dự án Fuji Residence, PLB, Quận 9, TP. Hồ Chí Minh Việt Nam",
  "district": "Q. 9",
  "lat": 10.813156,
  "lng": 106.78486,
  "name": "WIN HCM Flora - Fuji",
  "phone": "",
  "province": "TP. Hồ Chí Minh",
  "ward": "P. Phước Long B"
},
{
  "_id": {
    "$oid": "686f6014453f64991df3f65c"
  },
  "store_id": "5354",
  "chain": "winmart+",
  "address": "Tầng 1 chung cư Flora Anh Đào, 619 Đỗ Xuân Hợp, Phường Phước Long B, Quận 9, TP. Hồ Chí Minh Việt Nam",
  "district": "Q. 9",
  "lat": 10.806901,
  "lng": 106.77762,
  "name": "WIN HCM Flora Anh Đào",
  "phone": "",
  "province": "TP. Hồ Chí Minh",
  "ward": "P. Phước Long B"
},
{
  "_id": {
    "$oid": "686f6015453f64991df3f65d"
  },
  "chain": "winmart+",
  "store_id": "5637",
  "address": "TM 03, Tầng 1, Khối D (Khối thương mại dịch vụ) thuộc Khu chung cư Gia Hòa tọa lạc tại 523A Đỗ Xuân Hợp, KP6, Phước Long B TP. Hồ Chí Minh Việt Nam",
  "district": "Q. 9",
  "lat": 10.814534,
  "lng": 106.778275,
  "name": "WIN HCM TM 03 Tầng 1, Khối D, CC",
  "phone": "",
  "province": "TP. Hồ Chí Minh",
  "ward": "P. Phước Long B"
},
{
  "_id": {
    "$oid": "686f6015453f64991df3f65e"
  },
  "chain": "winmart+",
  "store_id": "6859",
  "address": "03.04 CC TopazHome 2, đường 154, P. Tân Phú, TP. Thủ Đức (Q. 9 cũ) TP. Hồ Chí Minh Việt Nam",
  "district": "Q. 9",
  "lat": 10.86484,
  "lng": 106.810555,
  "name": "WIN HCM  03-04, CC TopazHome 2",
  "phone": "",
  "province": "TP. Hồ Chí Minh",
  "ward": "P. Tân Phú"
},
{
  "_id": {
    "$oid": "686f6015453f64991df3f65f"
  },
  "store_id": "5238",
  "chain": "winmart+",
  "address": "81 Cầu Xây, Phường Tân Phú, Quận 9, TP. Hồ Chí Minh Việt Nam",
  "district": "Q. 9",
  "lat": 10.8545265,
  "lng": 106.80936,
  "name": "WM+ HCM 81 Cầu Xây",
  "phone": "",
  "province": "TP. Hồ Chí Minh",
  "ward": "P. Tân Phú"
},
{
  "_id": {
    "$oid": "686f6015453f64991df3f660"
  },
  "store_id": "3831",
  "chain": "winmart+",
  "address": "37 Đường 385, Phường Tăng Nhơn Phú A, Quận 9, TP. Hồ Chí Minh Việt Nam",
  "district": "Q. 9",
  "lat": 10.847615,
  "lng": 106.79077,
  "name": "WIN HCM 37 Đường 385 - Tăng Nhơn",
  "phone": "",
  "province": "TP. Hồ Chí Minh",
  "ward": "P. Tăng Nhơn Phú A"
},
{
  "_id": {
    "$oid": "686f6016453f64991df3f661"
  },
  "store_id": "3594",
  "chain": "winmart+",
  "address": "206 Đình Phong Phú, KP3, Phường Tăng Nhơn Phú B, Quận 9, TP. Hồ Chí Minh Việt Nam",
  "district": "Q. 9",
  "lat": 10.8339,
  "lng": 106.783,
  "name": "WIN HCM 206 Đình Phong Phú",
  "phone": "",
  "province": "TP. Hồ Chí Minh",
  "ward": "P. Tăng Nhơn Phú B"
},
{
  "_id": {
    "$oid": "686f6016453f64991df3f662"
  },
  "chain": "winmart+",
  "store_id": "3971",
  "address": "1443 Nguyễn Duy Trinh, Phường Trường Thạnh, Quận 9, TP. Hồ Chí Minh Việt Nam",
  "district": "Q. 9",
  "lat": 10.8061,
  "lng": 106.821,
  "name": "WM+ HCM 1443 Nguyễn Duy Trinh",
  "phone": "",
  "province": "TP. Hồ Chí Minh",
  "ward": "P. Trường Thạnh"
},
{
  "_id": {
    "$oid": "686f6016453f64991df3f663"
  },
  "chain": "winmart+",
  "store_id": "4395",
  "address": "59 Ngô Tất Tố, P. 21, Quận Bình Thạnh, TP. Hồ Chí Minh Việt Nam",
  "district": "Q. Bình Thạnh",
  "lat": 10.7942,
  "lng": 106.712,
  "name": "WM+ HCM CC City Garden",
  "phone": "",
  "province": "TP. Hồ Chí Minh",
  "ward": "P. 21"
},
{
  "_id": {
    "$oid": "686f6016453f64991df3f664"
  },
  "chain": "winmart",
  "store_id": "1630",
  "address": "Tòa nhà 81 tầng,Khu Central Park, KĐT Central Park, P22, Quận Bình Thạnh, TP. Hồ Chí Minh Việt Nam",
  "district": "Q. Bình Thạnh",
  "lat": 10.794308,
  "lng": 106.72054,
  "name": "WM VCC HCM Landmark 81",
  "phone": "0559701630",
  "province": "TP. Hồ Chí Minh",
  "ward": "P. 22"
},
{
  "_id": {
    "$oid": "686f6016453f64991df3f665"
  },
  "store_id": "3388",
  "chain": "winmart+",
  "address": "602/52 Điện Biên Phủ, Phường 22, Quận Bình Thạnh, TP. Hồ Chí Minh Việt Nam",
  "district": "Q. Bình Thạnh",
  "lat": 10.798038,
  "lng": 106.717766,
  "name": "WIN HCM 602/52 Điện Biên Phủ",
  "phone": "",
  "province": "TP. Hồ Chí Minh",
  "ward": "P. 22"
},
{
  "_id": {
    "$oid": "686f6017453f64991df3f666"
  },
  "chain": "winmart+",
  "store_id": "6295",
  "address": "Shophouse 18-19, Tòa nhà White House thuộc Dự án Sunwah Pearl, 90 Nguyễn Hữu Cảnh, P. 22, Q. Bình Thạnh, TP. Hồ Chí Minh Việt Nam",
  "district": "Q. Bình Thạnh",
  "lat": 10.789187,
  "lng": 106.718155,
  "name": "WIN HCM CC Sunwah Pearl",
  "phone": "",
  "province": "TP. Hồ Chí Minh",
  "ward": "P. 22"
},
{
  "_id": {
    "$oid": "686f6017453f64991df3f667"
  },
  "chain": "winmart+",
  "store_id": "4397",
  "address": "G10 & G11 Tầng Trệt, The Manor Officetel, Số 91 Nguyễn Hữu Cảnh, Phường 22, Quận Bình Thạnh, TP. Hồ Chí Minh Việt Nam",
  "district": "Q. Bình Thạnh",
  "lat": 10.7929,
  "lng": 106.718,
  "name": "WIN HCM CC The Manor 2",
  "phone": "",
  "province": "TP. Hồ Chí Minh",
  "ward": "P. 22"
},
{
  "_id": {
    "$oid": "686f6017453f64991df3f668"
  },
  "chain": "winmart+",
  "store_id": "3305",
  "address": "P7-SH-01, tòa nhà P7, dư án Vinhomes Central Park 722, đường Điện Biên Phủ, Phường 22, Quận Bình Thạnh, TP. Hồ Chí Minh Việt Nam",
  "district": "Q. Bình Thạnh",
  "lat": 10.7918,
  "lng": 106.722,
  "name": "WIN HCM Vinhomes Central Park P7",
  "phone": "",
  "province": "TP. Hồ Chí Minh",
  "ward": "P. 22"
},
{
  "_id": {
    "$oid": "686f6017453f64991df3f669"
  },
  "store_id": "4396",
  "chain": "winmart+",
  "address": "91 Nguyễn Hữu Cảnh, P. 22, Quận Bình Thạnh, TP. Hồ Chí Minh Việt Nam",
  "district": "Q. Bình Thạnh",
  "lat": 10.794,
  "lng": 106.718,
  "name": "WM+ HCM CC The Manor",
  "phone": "",
  "province": "TP. Hồ Chí Minh",
  "ward": "P. 22"
},
{
  "_id": {
    "$oid": "686f6018453f64991df3f66a"
  },
  "chain": "winmart+",
  "store_id": "3534",
  "address": "HCM 860/80/22 Xô Viết Nghệ Tĩnh, Phường 25, Quận Bình Thạnh, TP. Hồ Chí Minh Việt Nam",
  "district": "Q. Bình Thạnh",
  "lat": 10.8113,
  "lng": 106.718,
  "name": "WIN HCM 860/80/22 Xô Viết Nghệ Tĩnh",
  "phone": "",
  "province": "TP. Hồ Chí Minh",
  "ward": "P. 25"
},
{
  "_id": {
    "$oid": "686f6018453f64991df3f66b"
  },
  "store_id": "2AM6",
  "chain": "winmart+",
  "address": "1.01, Tầng 1, DA Khối căn hộ thuộc cụm công trình Cao ốc văn phòng kết hợp thương mại, dịch vụ và nhà ở, Số 152 Điện Biên Phủ, P. 25, TP. Hồ Chí Minh Việt Nam",
  "district": "Q. Bình Thạnh",
  "lat": 10.800712,
  "lng": 106.71725,
  "name": "WM+ HCM 1.01, CC Park View Residenc",
  "phone": "",
  "province": "TP. Hồ Chí Minh",
  "ward": "P. 25"
},
{
  "_id": {
    "$oid": "686f6018453f64991df3f66c"
  },
  "store_id": "6256",
  "chain": "winmart+",
  "address": "24-26 Tân Cảng, P. 25, Q. Bình Thạnh, TP. Hồ Chí Minh Việt Nam",
  "district": "Q. Bình Thạnh",
  "lat": 10.79962,
  "lng": 106.72093,
  "name": "WM+ HCM 24-26 Tân Cảng",
  "phone": "",
  "province": "TP. Hồ Chí Minh",
  "ward": "P. 25"
},
{
  "_id": {
    "$oid": "686f6018453f64991df3f66d"
  },
  "chain": "winmart",
  "store_id": "1596",
  "address": "TTTM Vincom Plaza Sài Gòn Res Số, 188,Đường Nguyễn Xí,Phường 26, Quận Bình Thạnh, TP. Hồ Chí Minh Việt Nam",
  "district": "Q. Bình Thạnh",
  "lat": 10.816425,
  "lng": 106.707016,
  "name": "WM VCP HCM Sài Gòn Res",
  "phone": "0559701596",
  "province": "TP. Hồ Chí Minh",
  "ward": "P. 26"
},
{
  "_id": {
    "$oid": "686f6018453f64991df3f66e"
  },
  "chain": "winmart+",
  "store_id": "4393",
  "address": "Số 57 Quốc Lộ 13, P. 26, Quận Bình Thạnh, TP. Hồ Chí Minh Việt Nam",
  "district": "Q. Bình Thạnh",
  "lat": 10.81182,
  "lng": 106.71185,
  "name": "WM+ HCM CC Morning Star",
  "phone": "",
  "province": "TP. Hồ Chí Minh",
  "ward": "P. 26"
},
{
  "_id": {
    "$oid": "686f6019453f64991df3f66f"
  },
  "chain": "winmart+",
  "store_id": "3645",
  "address": "1/54 Thanh Đa, Phường 27, Quận Bình Thạnh, TP. Hồ Chí Minh Việt Nam",
  "district": "Q. Bình Thạnh",
  "lat": 10.8131,
  "lng": 106.721,
  "name": "WIN HCM 1/54 Thanh Đa",
  "phone": "",
  "province": "TP. Hồ Chí Minh",
  "ward": "P. 27"
},
{
  "_id": {
    "$oid": "686f6019453f64991df3f670"
  },
  "store_id": "3880",
  "chain": "winmart+",
  "address": "1E Thanh Đa, Phường 27, Quận Bình Thạnh, TP. Hồ Chí Minh Việt Nam",
  "district": "Q. Bình Thạnh",
  "lat": 10.8143,
  "lng": 106.721,
  "name": "WIN HCM 1E Thanh Đa",
  "phone": "",
  "province": "TP. Hồ Chí Minh",
  "ward": "P. 27"
},
{
  "_id": {
    "$oid": "686f6019453f64991df3f671"
  },
  "store_id": "4147",
  "chain": "winmart+",
  "address": "17/41 Thanh Đa, Phường 27, Quận Bình Thạnh, TP. Hồ Chí Minh Việt Nam",
  "district": "Q. Bình Thạnh",
  "lat": 10.8164,
  "lng": 106.718,
  "name": "WM+ HCM 17/41 Thanh Đa",
  "phone": "",
  "province": "TP. Hồ Chí Minh",
  "ward": "P. 27"
},
{
  "_id": {
    "$oid": "686f6019453f64991df3f672"
  },
  "chain": "winmart",
  "store_id": "1549",
  "address": "190 đường Quang Trung, P. 10, Q. Gò Vấp, TP. Hồ Chí Minh Việt Nam",
  "district": "Q. Gò Vấp",
  "lat": 10.828793,
  "lng": 106.67178,
  "name": "WM VCP HCM Quang Trung",
  "phone": "0559701549",
  "province": "TP. Hồ Chí Minh",
  "ward": "P. 10"
},
{
  "_id": {
    "$oid": "686f601a453f64991df3f673"
  },
  "chain": "winmart",
  "store_id": "1527",
  "address": "Chung cư Bàu Cát II - Đường Vườn Lan, P. 10, Quận Tân Bình, TP. Hồ Chí Minh Việt Nam",
  "district": "Q. Tân Bình",
  "lat": 10.786134,
  "lng": 106.64476,
  "name": "WM HCM Bàu Cát",
  "phone": "0559701527",
  "province": "TP. Hồ Chí Minh",
  "ward": "P. 10"
},
{
  "_id": {
    "$oid": "686f601a453f64991df3f674"
  },
  "chain": "winmart",
  "store_id": "1631",
  "address": "Số 10 Đường Phổ Quang, P. 2, Quận Tân Bình, TP. Hồ Chí Minh Việt Nam",
  "district": "Q. Tân Bình",
  "lat": 10.801746,
  "lng": 106.665665,
  "name": "WM VC+ HCM Phổ Quang",
  "phone": "0559701631",
  "province": "TP. Hồ Chí Minh",
  "ward": "P. 2"
},
{
  "_id": {
    "$oid": "686f601a453f64991df3f675"
  },
  "chain": "winmart",
  "store_id": "1513",
  "address": "15-17 Cộng Hòa, P.4 , Quận Tân Bình , TP. Hồ Chí Minh, Việt Nam",
  "district": "Q. Tân Bình",
  "lat": 10.80062,
  "lng": 106.65606,
  "name": "WM VCP HCM Cộng Hòa",
  "phone": "908100071",
  "province": "TP. Hồ Chí Minh",
  "ward": "P. 4"
},
{
  "_id": {
    "$oid": "686f601a453f64991df3f676"
  },
  "store_id": "3934",
  "chain": "winmart+",
  "address": "39A - 41 Đường Số 3, KP 6, Phường Trường Thọ, Quận Thủ Đức, TP. Hồ Chí Minh Việt Nam",
  "district": "Q. Thủ Đức",
  "lat": 10.83394,
  "lng": 106.76049,
  "name": "WIN HCM 39A - 41 Đường Số 3",
  "phone": "",
  "province": "TP. Hồ Chí Minh",
  "ward": "P. Trường Thọ"
},
{
  "_id": {
    "$oid": "686f601b453f64991df3f677"
  },
  "chain": "winmart+",
  "store_id": "4821",
  "address": "0.14 tầng 01 (trệt), Chung cư cao tầng Phường Trường Thọ, 17 Đường số 3, Khu phố 6, P. Trường Thọ Quận Thủ Đức, TP. Hồ Chí Minh Việt Nam",
  "district": "Q. Thủ Đức",
  "lat": 10.8339,
  "lng": 106.762,
  "name": "WIN HCM Lavita Garden",
  "phone": "",
  "province": "TP. Hồ Chí Minh",
  "ward": "P. Trường Thọ"
},
{
  "_id": {
    "$oid": "686f8342453f64991df3fb1b"
  },
  "store_id": 3271,
  "chain": "BHX",
  "district": "",
  "district_id": 35,
  "is_store_virtual": false,
  "latitude": 10.673786,
  "longitude": 106.69795,
  "open_hour": "5 giờ 30 phút - 21 giờ 30 phút (kể cả CN và ngày lễ)",
  "phone_number": "",
  "province": "",
  "province_id": 3,
  "store_location": "2/4 Đường Lê Văn Lương, Xã Nhơn Đức, Huyện Nhà Bè, Thành phố Hồ Chí Minh, Việt Nam",
  "store_name": "BHX 2/4 Lê Văn Lương",
  "store_status": "",
  "ward": "",
  "ward_id": 10369
},
{
  "_id": {
    "$oid": "686f8342453f64991df3fb1c"
  },
  "store_id": 3254,
  "chain": "BHX",
  "district": "",
  "district_id": 2087,
  "is_store_virtual": false,
  "latitude": 10.863363,
  "longitude": 106.76012,
  "open_hour": "5 giờ 30 phút - 21 giờ 30 phút (kể cả CN và ngày lễ)",
  "phone_number": "",
  "province": "",
  "province_id": 3,
  "store_location": "Số 4A Đường số 11, Khu phố 1, Phường Linh Tây, Thành phố Thủ Đức, Thành phố Hồ Chí Minh, Việt Nam",
  "store_name": "BHX 4A Đường Số 11",
  "store_status": "",
  "ward": "",
  "ward_id": 27106
},
{
  "_id": {
    "$oid": "686f8342453f64991df3fb1d"
  },
  "store_id": 3255,
  "chain": "BHX",
  "district": "",
  "district_id": 2087,
  "is_store_virtual": false,
  "latitude": 10.855536,
  "longitude": 106.77414,
  "open_hour": "6 giờ - 21 giờ 30 phút (kể cả CN và ngày lễ)",
  "phone_number": "",
  "province": "",
  "province_id": 3,
  "store_location": "39 Lê Văn Chí, Khu phố 3, Phường Linh Trung, Thành phố Thủ Đức, Thành phố Hồ Chí Minh, Việt Nam",
  "store_name": "BHX 39 Lê Văn Chí",
  "store_status": "",
  "ward": "",
  "ward_id": 27100
},
{
  "_id": {
    "$oid": "686f8343453f64991df3fb1e"
  },
  "store_id": 3257,
  "chain": "BHX",
  "district": "",
  "district_id": 2087,
  "is_store_virtual": false,
  "latitude": 10.828845,
  "longitude": 106.77272,
  "open_hour": "6 giờ - 21 giờ 30 phút (kể cả CN và ngày lễ)",
  "phone_number": "",
  "province": "",
  "province_id": 3,
  "store_location": "99 Tăng Nhơn Phú , Khu Phố 2, Phường Phước Long B , Thành phố Thủ Đức, Thành phố Hồ Chí Minh, Việt Nam",
  "store_name": "BHX 99 Tăng Nhơn Phú",
  "store_status": "",
  "ward": "",
  "ward_id": 27116
},
{
  "_id": {
    "$oid": "686f8343453f64991df3fb1f"
  },
  "store_id": 3258,
  "chain": "BHX",
  "district": "",
  "district_id": 36,
  "is_store_virtual": false,
  "latitude": 10.662075,
  "longitude": 106.57417,
  "open_hour": "5 giờ 30 phút - 21 giờ 30 phút (kể cả CN và ngày lễ)",
  "phone_number": "",
  "province": "",
  "province_id": 3,
  "store_location": "C13/9 Đinh Đức Thiện, Ấp 3, Xã Bình Chánh, H. Bình Chánh",
  "store_name": "BHX C13/9 Đinh Đức Thiện",
  "store_status": "",
  "ward": "",
  "ward_id": 10375
},
{
  "_id": {
    "$oid": "686f8343453f64991df3fb20"
  },
  "store_id": 3261,
  "chain": "BHX",
  "district": "",
  "district_id": 2087,
  "is_store_virtual": false,
  "latitude": 10.852923,
  "longitude": 106.76733,
  "open_hour": "6 giờ - 21 giờ 30 phút (kể cả CN và ngày lễ)",
  "phone_number": "",
  "province": "",
  "province_id": 3,
  "store_location": "11 Đường Tô Vĩnh Diện, Khu phố 4, Phường Linh Chiểu, Thành phố Thủ Đức, Thành phố Hồ Chí Minh, Việt Nam",
  "store_name": "BHX 11 Tô Vĩnh Diện",
  "store_status": "",
  "ward": "",
  "ward_id": 27105
},
{
  "_id": {
    "$oid": "686f8343453f64991df3fb21"
  },
  "store_id": 3262,
  "chain": "BHX",
  "district": "",
  "district_id": 27,
  "is_store_virtual": false,
  "latitude": 10.859631,
  "longitude": 106.67834,
  "open_hour": "5 giờ 30 phút - 21 giờ 30 phút (kể cả CN và ngày lễ)",
  "phone_number": "",
  "province": "",
  "province_id": 3,
  "store_location": "324/6 Khu Phố 3, P. Thạnh Lộc, Q. 12",
  "store_name": "BHX 324/6 Thạnh Lộc",
  "store_status": "",
  "ward": "",
  "ward_id": 10265
},
{
  "_id": {
    "$oid": "686f8344453f64991df3fb22"
  },
  "store_id": 3263,
  "chain": "BHX",
  "district": "",
  "district_id": 27,
  "is_store_virtual": false,
  "latitude": 10.82342,
  "longitude": 106.62017,
  "open_hour": "5 giờ 30 phút - 21 giờ 30 phút (kể cả CN và ngày lễ)",
  "phone_number": "",
  "province": "",
  "province_id": 3,
  "store_location": "181 Đường TTN17, khu phố 4, Phường Tân Thới Nhất, Quận 12, Thầnh phố Hồ Chí Minh, Việt Nam",
  "store_name": "BHX 181 TTN17",
  "store_status": "",
  "ward": "",
  "ward_id": 10264
},
{
  "_id": {
    "$oid": "686f8344453f64991df3fb23"
  },
  "store_id": 3264,
  "chain": "BHX",
  "district": "",
  "district_id": 27,
  "is_store_virtual": false,
  "latitude": 10.875421,
  "longitude": 106.6263,
  "open_hour": "5 giờ 30 phút - 21 giờ 30 phút (kể cả CN và ngày lễ)",
  "phone_number": "",
  "province": "",
  "province_id": 3,
  "store_location": "26/1 Nguyễn Thị Búp, P. Tân Chánh Hiệp, Q. 12",
  "store_name": "BHX 26/1 Nguyễn Thị Búp",
  "store_status": "",
  "ward": "",
  "ward_id": 10261
},
{
  "_id": {
    "$oid": "686f8344453f64991df3fb24"
  },
  "store_id": 2854,
  "chain": "BHX",
  "district": "",
  "district_id": 29,
  "is_store_virtual": false,
  "latitude": 10.848395,
  "longitude": 106.67123,
  "open_hour": "6 giờ - 21 giờ 30 phút (kể cả CN và ngày lễ)",
  "phone_number": "",
  "province": "",
  "province_id": 3,
  "store_location": "730/54 Lê Đức Thọ, P. 15, Q. Gò Vấp",
  "store_name": "BHX 730 Lê Đức Thọ",
  "store_status": "",
  "ward": "",
  "ward_id": 10287
},
{
  "_id": {
    "$oid": "686f8344453f64991df3fb25"
  },
  "store_id": 2858,
  "chain": "BHX",
  "district": "",
  "district_id": 36,
  "is_store_virtual": false,
  "latitude": 10.657072,
  "longitude": 106.61046,
  "open_hour": "5 giờ 30 phút - 21 giờ 30 phút (kể cả CN và ngày lễ)",
  "phone_number": "",
  "province": "",
  "province_id": 3,
  "store_location": "D11/41A, Đoàn Nguyễn Tuấn, Ấp 4, Xã Hưng Long, Huyện Bình Chánh, Thành Phố Hồ Chí Minh , Việt Nam",
  "store_name": "BHX D11/4A Đoàn Nguyễn Tuấn",
  "store_status": "",
  "ward": "",
  "ward_id": 10379
},
{
  "_id": {
    "$oid": "686f8345453f64991df3fb26"
  },
  "store_id": 3588,
  "chain": "BHX",
  "district": "",
  "district_id": 2087,
  "is_store_virtual": false,
  "latitude": 10.842275,
  "longitude": 106.76336,
  "open_hour": "6 giờ - 21 giờ 30 phút (kể cả CN và ngày lễ)",
  "phone_number": "",
  "province": "",
  "province_id": 3,
  "store_location": "83 Đặng Văn Bi, Khu phố 5, Phường Trường Thọ, Thành phố Thủ Đức, Thành phố Hồ Chí Minh, Việt Nam",
  "store_name": "BHX 2A Đường Số 5",
  "store_status": "",
  "ward": "",
  "ward_id": 27109
},
{
  "_id": {
    "$oid": "686f8345453f64991df3fb27"
  },
  "store_id": 3589,
  "chain": "BHX",
  "district": "",
  "district_id": 2087,
  "is_store_virtual": false,
  "latitude": 10.891867,
  "longitude": 106.72447,
  "open_hour": "6 giờ - 21 giờ 30 phút (kể cả CN và ngày lễ)",
  "phone_number": "",
  "province": "",
  "province_id": 3,
  "store_location": "1267 Tỉnh Lộ 43, Khu phố 2, Phường Bình Chiểu, Thành phố Thủ Đức, Thành phố Hồ Chí Minh, Việt Nam",
  "store_name": "BHX 1267 Tỉnh Lộ 43",
  "store_status": "",
  "ward": "",
  "ward_id": 27099
},
{
  "_id": {
    "$oid": "686f8345453f64991df3fb28"
  },
  "store_id": 3590,
  "chain": "BHX",
  "district": "",
  "district_id": 29,
  "is_store_virtual": false,
  "latitude": 10.838221,
  "longitude": 106.63675,
  "open_hour": "5 giờ 30 phút - 21 giờ 30 phút (kể cả CN và ngày lễ)",
  "phone_number": "",
  "province": "",
  "province_id": 3,
  "store_location": "288 Phan Huy  Ích, P. 12, Q. Gò Vấp",
  "store_name": "BHX 288 Phan Huy Ích",
  "store_status": "",
  "ward": "",
  "ward_id": 10284
},
{
  "_id": {
    "$oid": "686f8345453f64991df3fb29"
  },
  "store_id": 3002,
  "chain": "BHX",
  "district": "",
  "district_id": 2087,
  "is_store_virtual": false,
  "latitude": 10.885622,
  "longitude": 106.72873,
  "open_hour": "6 giờ - 21 giờ 30 phút (kể cả CN và ngày lễ)",
  "phone_number": "",
  "province": "",
  "province_id": 3,
  "store_location": "1030 Tỉnh lộ 43, Khu phố 1, Phường Bình Chiểu, Thành phố Thủ Đức, Thành phố Hồ Chí Minh, Việt Nam",
  "store_name": "BHX 1030 Tỉnh Lộ 43",
  "store_status": "",
  "ward": "",
  "ward_id": 27099
},
{
  "_id": {
    "$oid": "686f8345453f64991df3fb2a"
  },
  "store_id": 3520,
  "chain": "BHX",
  "district": "",
  "district_id": 21,
  "is_store_virtual": false,
  "latitude": 10.745576,
  "longitude": 106.64323,
  "open_hour": "5 giờ 30 phút - 21 giờ 30 phút (kể cả CN và ngày lễ)",
  "phone_number": "",
  "province": "",
  "province_id": 3,
  "store_location": "224 Phạm Phú Thứ, P. 4, Q. 6",
  "store_name": "BHX 224 Phạm Phú Thứ",
  "store_status": "",
  "ward": "",
  "ward_id": 10177
},
{
  "_id": {
    "$oid": "686f8346453f64991df3fb2b"
  },
  "store_id": 3547,
  "chain": "BHX",
  "district": "",
  "district_id": 36,
  "is_store_virtual": false,
  "latitude": 10.732093,
  "longitude": 106.67474,
  "open_hour": "5 giờ 30 phút - 21 giờ 30 phút (kể cả CN và ngày lễ)",
  "phone_number": "",
  "province": "",
  "province_id": 3,
  "store_location": "C7 Phạm Hùng, Ấp 4, H. Bình Chánh",
  "store_name": "BHX C7/2-C7/3 Phạm Hùng",
  "store_status": "",
  "ward": "",
  "ward_id": 10376
},
{
  "_id": {
    "$oid": "686f8346453f64991df3fb2c"
  },
  "store_id": 3555,
  "chain": "BHX",
  "district": "",
  "district_id": 29,
  "is_store_virtual": false,
  "latitude": 10.814845,
  "longitude": 106.68721,
  "open_hour": "5 giờ 30 phút - 21 giờ 30 phút (kể cả CN và ngày lễ)",
  "phone_number": "",
  "province": "",
  "province_id": 3,
  "store_location": "26 Nguyễn Thượng Hiền, P. 1, Q. Gò Vấp",
  "store_name": "BHX 26 Nguyễn Thượng Hiền",
  "store_status": "",
  "ward": "",
  "ward_id": 10281
},
{
  "_id": {
    "$oid": "686f8346453f64991df3fb2d"
  },
  "store_id": 1157,
  "chain": "BHX",
  "district": "",
  "district_id": 31,
  "is_store_virtual": false,
  "latitude": 10.759498,
  "longitude": 106.59832,
  "open_hour": "5 giờ 30 phút - 21 giờ 30 phút (kể cả CN và ngày lễ)",
  "phone_number": "",
  "province": "",
  "province_id": 3,
  "store_location": "173A Lê Đình Cẩn, Khu Phố 6, Phường Tân Tạo, Quận Bình Tân, Thành phố Hồ Chí Minh, Việt Nam",
  "store_name": "BHX 175 Lê Đình Cẩn",
  "store_status": "",
  "ward": "",
  "ward_id": 10320
},
{
  "_id": {
    "$oid": "686f8346453f64991df3fb2e"
  },
  "store_id": 1489,
  "chain": "BHX",
  "district": "",
  "district_id": 31,
  "is_store_virtual": false,
  "latitude": 10.781919,
  "longitude": 106.60487,
  "open_hour": "6 giờ - 21 giờ 30 phút (kể cả CN và ngày lễ)",
  "phone_number": "",
  "province": "",
  "province_id": 3,
  "store_location": "2 đường số 16, P. Bình Hưng Hòa A, Q. Bình Tân",
  "store_name": "BHX 2 Đường 16",
  "store_status": "",
  "ward": "",
  "ward_id": 10315
},
{
  "_id": {
    "$oid": "686f8347453f64991df3fb2f"
  },
  "store_id": 1521,
  "chain": "BHX",
  "district": "",
  "district_id": 31,
  "is_store_virtual": false,
  "latitude": 10.761961,
  "longitude": 106.616615,
  "open_hour": "5 giờ 30 phút - 21 giờ 30 phút (kể cả CN và ngày lễ)",
  "phone_number": "",
  "province": "",
  "province_id": 3,
  "store_location": "131 Chiến Lược, Khu Phố 16, P. Bình Trị Đông, Q. Bình Tân",
  "store_name": "BHX 131 Chiến Lược",
  "store_status": "",
  "ward": "",
  "ward_id": 10317
},
{
  "_id": {
    "$oid": "686f8347453f64991df3fb30"
  },
  "store_id": 2453,
  "chain": "BHX",
  "district": "",
  "district_id": 32,
  "is_store_virtual": false,
  "latitude": 10.843611,
  "longitude": 106.59542,
  "open_hour": "5 giờ 30 phút - 21 giờ 30 phút (kể cả CN và ngày lễ)",
  "phone_number": "",
  "province": "",
  "province_id": 3,
  "store_location": "2/2 Phan Văn Hớn, Ấp Tiền Lân, Bà Điểm, H. Hóc Môn",
  "store_name": "BHX 2/2 Phan Văn Hớn",
  "store_status": "",
  "ward": "",
  "ward_id": 10323
},
{
  "_id": {
    "$oid": "686f8347453f64991df3fb31"
  },
  "store_id": 2401,
  "chain": "BHX",
  "district": "",
  "district_id": 32,
  "is_store_virtual": false,
  "latitude": 10.874418,
  "longitude": 106.57457,
  "open_hour": "5 giờ - 21 giờ 30 phút (kể cả CN và ngày lễ)",
  "phone_number": "",
  "province": "",
  "province_id": 3,
  "store_location": "27/10A Nguyễn Văn Bứa, Xã Xuân Thới Sơn, H. Hóc Môn",
  "store_name": "BHX 27/10A Nguyễn Văn Bứa",
  "store_status": "",
  "ward": "",
  "ward_id": 10332
},
{
  "_id": {
    "$oid": "686f8347453f64991df3fb32"
  },
  "store_id": 2442,
  "chain": "BHX",
  "district": "",
  "district_id": 36,
  "is_store_virtual": false,
  "latitude": 10.713388,
  "longitude": 106.59322,
  "open_hour": "5 giờ 30 phút - 21 giờ 30 phút (kể cả CN và ngày lễ)",
  "phone_number": "",
  "province": "",
  "province_id": 3,
  "store_location": "225 Hưng Nhơn, ấp 3, Xã Tân Kiên, Huyện Bình Chánh, Thành phố Hồ Chí Minh, Việt Nam",
  "store_name": "BHX 225 Hưng Nhơn",
  "store_status": "",
  "ward": "",
  "ward_id": 10384
},
{
  "_id": {
    "$oid": "686f8348453f64991df3fb33"
  },
  "store_id": 2643,
  "chain": "BHX",
  "district": "",
  "district_id": 32,
  "is_store_virtual": false,
  "latitude": 10.892871,
  "longitude": 106.61226,
  "open_hour": "5 giờ 30 phút - 21 giờ 30 phút (kể cả CN và ngày lễ)",
  "phone_number": "",
  "province": "",
  "province_id": 3,
  "store_location": "23/9A Trịnh Thị Miếng, ấp Thới Tứ, Xã Thới Tam Thôn, Huyện Hóc Môn, Thành phố Hồ Chí Minh, Việt Nam",
  "store_name": "BHX 23/9A T.Thị Miếng",
  "store_status": "",
  "ward": "",
  "ward_id": 10329
},
{
  "_id": {
    "$oid": "686f8348453f64991df3fb34"
  },
  "store_id": 3390,
  "chain": "BHX",
  "district": "",
  "district_id": 34,
  "is_store_virtual": false,
  "latitude": 10.99475,
  "longitude": 106.59089,
  "open_hour": "5 giờ 30 phút - 21 giờ 30 phút (kể cả CN và ngày lễ)",
  "phone_number": "",
  "province": "",
  "province_id": 3,
  "store_location": "Trung An",
  "store_name": "BHX 149/30 Ấp Chợ",
  "store_status": "",
  "ward": "",
  "ward_id": 10360
},
{
  "_id": {
    "$oid": "686f8348453f64991df3fb35"
  },
  "store_id": 3391,
  "chain": "BHX",
  "district": "",
  "district_id": 2087,
  "is_store_virtual": false,
  "latitude": 10.777311,
  "longitude": 106.76734,
  "open_hour": "6 giờ - 21 giờ 30 phút (kể cả CN và ngày lễ)",
  "phone_number": "",
  "province": "",
  "province_id": 3,
  "store_location": "319 – 323 Lê Văn Thịnh, khu phố 2, Phường Cát Lái, Thành phố Thủ Đức, Thành phố Hồ Chí Minh, Việt Nam",
  "store_name": "BHX 323 Lê Văn Thịnh",
  "store_status": "",
  "ward": "",
  "ward_id": 27128
},
{
  "_id": {
    "$oid": "686f8348453f64991df3fb36"
  },
  "store_id": 3393,
  "chain": "BHX",
  "district": "",
  "district_id": 22,
  "is_store_virtual": false,
  "latitude": 10.704499,
  "longitude": 106.73168,
  "open_hour": "5 giờ 30 phút - 21 giờ 30 phút (kể cả CN và ngày lễ)",
  "phone_number": "",
  "province": "",
  "province_id": 3,
  "store_location": "150 Phạm Hữu Lầu, Phường Phú Mỹ, Quận 7, Thành phố Hồ Chí Minh, Việt Nam",
  "store_name": "BHX 148 Phạm Hữu Lầu",
  "store_status": "",
  "ward": "",
  "ward_id": 10189
},
{
  "_id": {
    "$oid": "686f8349453f64991df3fb37"
  },
  "store_id": 3645,
  "chain": "BHX",
  "district": "",
  "district_id": 22,
  "is_store_virtual": false,
  "latitude": 10.744023,
  "longitude": 106.71577,
  "open_hour": "5 giờ 30 phút - 21 giờ 30 phút (kể cả CN và ngày lễ)",
  "phone_number": "",
  "province": "",
  "province_id": 3,
  "store_location": "122 Lâm Văn Bền, Phuờng Tân Quy, Quận 7, Thành Phố Hồ Chí Minh, Việt Nam",
  "store_name": "BHX 122 Lâm Văn Bền",
  "store_status": "",
  "ward": "",
  "ward_id": 10195
},
{
  "_id": {
    "$oid": "686f8349453f64991df3fb38"
  },
  "store_id": 3320,
  "chain": "BHX",
  "district": "",
  "district_id": 34,
  "is_store_virtual": false,
  "latitude": 10.932063,
  "longitude": 106.55318,
  "open_hour": "5 giờ 30 phút - 21 giờ 30 phút (kể cả CN và ngày lễ)",
  "phone_number": "",
  "province": "",
  "province_id": 3,
  "store_location": "2 Giồng Cát, Tổ 1, Xã Tân Phú Trung, H. Củ Chi",
  "store_name": "BHX 02 Giồng Cát",
  "store_status": "",
  "ward": "",
  "ward_id": 10354
},
{
  "_id": {
    "$oid": "686f8349453f64991df3fb39"
  },
  "store_id": 3322,
  "chain": "BHX",
  "district": "",
  "district_id": 23,
  "is_store_virtual": false,
  "latitude": 10.716455,
  "longitude": 106.62602,
  "open_hour": "5 giờ 30 phút - 21 giờ 30 phút (kể cả CN và ngày lễ)",
  "phone_number": "",
  "province": "",
  "province_id": 3,
  "store_location": "61A đường Phú Định, Phường 16, Quận 8, Thành phố Hồ Chí Minh, Việt Nam",
  "store_name": "BHX 61A Phú Định",
  "store_status": "",
  "ward": "",
  "ward_id": 10205
},
{
  "_id": {
    "$oid": "686f8349453f64991df3fb3a"
  },
  "store_id": 3394,
  "chain": "BHX",
  "district": "",
  "district_id": 22,
  "is_store_virtual": false,
  "latitude": 10.741379,
  "longitude": 106.70386,
  "open_hour": "5 giờ 30 phút - 21 giờ 30 phút (kể cả CN và ngày lễ)",
  "phone_number": "",
  "province": "",
  "province_id": 3,
  "store_location": "343 Lê Văn Lương, P. Tân Quy, Q. 7",
  "store_name": "BHX 343 Lê Văn Lương",
  "store_status": "",
  "ward": "",
  "ward_id": 10195
},
{
  "_id": {
    "$oid": "686f834a453f64991df3fb3b"
  },
  "store_id": 3711,
  "chain": "BHX",
  "district": "",
  "district_id": 36,
  "is_store_virtual": false,
  "latitude": 10.729666,
  "longitude": 106.58052,
  "open_hour": "5 giờ 30 phút - 21 giờ 30 phút (kể cả CN và ngày lễ)",
  "phone_number": "",
  "province": "",
  "province_id": 3,
  "store_location": "A2/22 Trần Đại Nghĩa, Ấp 4, Xã Tân Kiên, Huyện Bình Chánh, Thành phố Hồ Chí Minh, Việt Nam",
  "store_name": "BHX A2/22 Trần Đại Nghĩa",
  "store_status": "",
  "ward": "",
  "ward_id": 10384
},
{
  "_id": {
    "$oid": "686f834a453f64991df3fb3c"
  },
  "store_id": 3324,
  "chain": "BHX",
  "district": "",
  "district_id": 27,
  "is_store_virtual": false,
  "latitude": 10.830651,
  "longitude": 106.6198,
  "open_hour": "5 giờ 30 phút - 21 giờ 30 phút (kể cả CN và ngày lễ)",
  "phone_number": "",
  "province": "",
  "province_id": 3,
  "store_location": "Số 10/19 và 10/33, Khu phố 3, Phường Tân Thới Nhất, Quận 12, Thành phố Hồ Chí Minh, Việt Nam",
  "store_name": "BHX 10/33 Khu phố 3",
  "store_status": "",
  "ward": "",
  "ward_id": 10264
},
{
  "_id": {
    "$oid": "686f834a453f64991df3fb3d"
  },
  "store_id": 3326,
  "chain": "BHX",
  "district": "",
  "district_id": 29,
  "is_store_virtual": false,
  "latitude": 10.842208,
  "longitude": 106.67713,
  "open_hour": "5 giờ 30 phút - 21 giờ 30 phút (kể cả CN và ngày lễ)",
  "phone_number": "",
  "province": "",
  "province_id": 3,
  "store_location": "9A đường số 30, P. 6, Q. Gò Vấp  50m)",
  "store_name": "BHX 390 Nguyễn Oanh",
  "store_status": "",
  "ward": "",
  "ward_id": 10293
},
{
  "_id": {
    "$oid": "686f834a453f64991df3fb3e"
  },
  "store_id": 2333,
  "chain": "BHX",
  "district": "",
  "district_id": 32,
  "is_store_virtual": false,
  "latitude": 10.86431,
  "longitude": 106.56627,
  "open_hour": "5 giờ 30 phút - 21 giờ 30 phút (kể cả CN và ngày lễ)",
  "phone_number": "",
  "province": "",
  "province_id": 3,
  "store_location": "35/1B Phan Văn Hớn, ấp 1, Xã Xuân Thới Thượng, Huyện Hóc Môn, Thành phố Hồ Chí Minh, Việt Nam",
  "store_name": "BHX 35/1B Phan Văn Hớn",
  "store_status": "",
  "ward": "",
  "ward_id": 10333
},
{
  "_id": {
    "$oid": "686f834b453f64991df3fb3f"
  },
  "store_id": 3342,
  "chain": "BHX",
  "district": "",
  "district_id": 2087,
  "is_store_virtual": false,
  "latitude": 10.840505,
  "longitude": 106.7318,
  "open_hour": "5 giờ 30 phút - 21 giờ 30 phút (kể cả CN và ngày lễ)",
  "phone_number": "",
  "province": "",
  "province_id": 3,
  "store_location": "70 Hiệp Bình, Phường Hiệp Bình Chánh, Thành phố Thủ Đức, Thành phố Hồ Chí Minh, Việt Nam",
  "store_name": "BHX 70 Hiệp Bình",
  "store_status": "",
  "ward": "",
  "ward_id": 27104
},
{
  "_id": {
    "$oid": "686f834b453f64991df3fb40"
  },
  "store_id": 3399,
  "chain": "BHX",
  "district": "",
  "district_id": 21,
  "is_store_virtual": false,
  "latitude": 10.756917,
  "longitude": 106.63177,
  "open_hour": "5 giờ 30 phút - 21 giờ 30 phút (kể cả CN và ngày lễ)",
  "phone_number": "",
  "province": "",
  "province_id": 3,
  "store_location": "43A Tân Hòa Đông, P. 14, Q. 6",
  "store_name": "BHX 43A Tân Hòa Đông",
  "store_status": "",
  "ward": "",
  "ward_id": 10187
},
{
  "_id": {
    "$oid": "686f834b453f64991df3fb41"
  },
  "store_id": 3355,
  "chain": "BHX",
  "district": "",
  "district_id": 35,
  "is_store_virtual": false,
  "latitude": 10.645278,
  "longitude": 106.73175,
  "open_hour": "5 giờ 30 phút - 21 giờ 30 phút (kể cả CN và ngày lễ)",
  "phone_number": "",
  "province": "",
  "province_id": 3,
  "store_location": "532 Nguyễn Văn Tạo, ấp 2, xã Long Thới, Huyện Nhà Bè, Thành phố Hồ Chí Minh, Việt Nam",
  "store_name": "BHX 532 Nguyễn Văn Tạo",
  "store_status": "",
  "ward": "",
  "ward_id": 10368
},
{
  "_id": {
    "$oid": "686f834b453f64991df3fb42"
  },
  "store_id": 3400,
  "chain": "BHX",
  "district": "",
  "district_id": 31,
  "is_store_virtual": false,
  "latitude": 10.758432,
  "longitude": 106.58894,
  "open_hour": "5 giờ 30 phút - 21 giờ 30 phút (kể cả CN và ngày lễ)",
  "phone_number": "",
  "province": "",
  "province_id": 3,
  "store_location": "20 - 22 Hồ Văn Long, Phường Tân Tạo, Quận Bình Tân, thành phố Hồ Chí Minh",
  "store_name": "BHX 20 Hồ Văn Long",
  "store_status": "",
  "ward": "",
  "ward_id": 10320
},
{
  "_id": {
    "$oid": "686f834b453f64991df3fb43"
  },
  "store_id": 3365,
  "chain": "BHX",
  "district": "",
  "district_id": 27,
  "is_store_virtual": false,
  "latitude": 10.867789,
  "longitude": 106.63562,
  "open_hour": "5 giờ 30 phút - 21 giờ 30 phút (kể cả CN và ngày lễ)",
  "phone_number": "",
  "province": "",
  "province_id": 3,
  "store_location": "458 Tân Thới Hiệp 02, Khu Phố 3, P. Tân Chánh Hiệp, Q. 12",
  "store_name": "BHX 458 Đường TTH02",
  "store_status": "",
  "ward": "",
  "ward_id": 10263
},
{
  "_id": {
    "$oid": "686f834c453f64991df3fb44"
  },
  "store_id": 3369,
  "chain": "BHX",
  "district": "",
  "district_id": 36,
  "is_store_virtual": false,
  "latitude": 10.810881,
  "longitude": 106.57484,
  "open_hour": "5 giờ 30 phút - 21 giờ 30 phút (kể cả CN và ngày lễ)",
  "phone_number": "",
  "province": "",
  "province_id": 3,
  "store_location": "F1/13 Vĩnh Lộc, Ấp 6, X. Vĩnh Lộc A, H. Bình Chánh",
  "store_name": "BHX F1/13 Vĩnh Lộc",
  "store_status": "",
  "ward": "",
  "ward_id": 10387
},
{
  "_id": {
    "$oid": "686f834c453f64991df3fb45"
  },
  "store_id": 3370,
  "chain": "BHX",
  "district": "",
  "district_id": 36,
  "is_store_virtual": false,
  "latitude": 10.676751,
  "longitude": 106.61722,
  "open_hour": "5 giờ 30 phút - 21 giờ 30 phút (kể cả CN và ngày lễ)",
  "phone_number": "",
  "province": "",
  "province_id": 3,
  "store_location": "F1/68 An Phú Tây - Hưng Long, Ấp 6, Xã Hưng Long, H. Bình Chánh",
  "store_name": "BHX F1/68 Hưng Long",
  "store_status": "",
  "ward": "",
  "ward_id": 10379
},
{
  "_id": {
    "$oid": "686f834c453f64991df3fb46"
  },
  "store_id": 4134,
  "chain": "BHX",
  "district": "",
  "district_id": 25,
  "is_store_virtual": false,
  "latitude": 10.779069,
  "longitude": 106.67414,
  "open_hour": "5 giờ 30 phút - 21 giờ 30 phút (kể cả CN và ngày lễ)",
  "phone_number": "",
  "province": "",
  "province_id": 3,
  "store_location": "97 đường Hòa Hưng, Phường 12, Quận 10, thành phố Hồ Chí Minh, Việt Nam",
  "store_name": "BHX 97 Hòa Hưng",
  "store_status": "",
  "ward": "",
  "ward_id": 10238
},
{
  "_id": {
    "$oid": "686f834c453f64991df3fb47"
  },
  "store_id": 3418,
  "chain": "BHX",
  "district": "",
  "district_id": 36,
  "is_store_virtual": false,
  "latitude": 10.789007,
  "longitude": 106.51579,
  "open_hour": "5 giờ 30 phút - 21 giờ 30 phút (kể cả CN và ngày lễ)",
  "phone_number": "",
  "province": "",
  "province_id": 3,
  "store_location": "3A73/1 ấp 3, xã Phạm Văn Hai, huyện Bình Chánh, Thành phố Hồ Chí Minh, Việt Nam",
  "store_name": "BHX 3A73/1 Ấp 3 Phạm Văn Hai",
  "store_status": "",
  "ward": "",
  "ward_id": 10381
},
{
  "_id": {
    "$oid": "686f834d453f64991df3fb48"
  },
  "store_id": 3371,
  "chain": "BHX",
  "district": "",
  "district_id": 30,
  "is_store_virtual": false,
  "latitude": 10.77917,
  "longitude": 106.64687,
  "open_hour": "5 giờ 30 phút - 21 giờ 30 phút (kể cả CN và ngày lễ)",
  "phone_number": "",
  "province": "",
  "province_id": 3,
  "store_location": "166A Trần Văn Quang, P. 10, Q. Tân Bình",
  "store_name": "BHX 166A Trần Văn Quang",
  "store_status": "",
  "ward": "",
  "ward_id": 10298
},
{
  "_id": {
    "$oid": "686f834d453f64991df3fb49"
  },
  "store_id": 4823,
  "chain": "BHX",
  "district": "",
  "district_id": 20,
  "is_store_virtual": false,
  "latitude": 10.752113,
  "longitude": 106.6761,
  "open_hour": "5 giờ 30 phút - 21 giờ 30 phút (kể cả CN và ngày lễ)",
  "phone_number": "",
  "province": "",
  "province_id": 3,
  "store_location": "10 - 12 Nhiêu Tâm, P.5, Q.5, TP. HCM",
  "store_name": "BHX 10-12 Nhiêu Tâm",
  "store_status": "",
  "ward": "",
  "ward_id": 10163
},
{
  "_id": {
    "$oid": "686f834d453f64991df3fb4a"
  },
  "store_id": 3425,
  "chain": "BHX",
  "district": "",
  "district_id": 25,
  "is_store_virtual": false,
  "latitude": 10.781538,
  "longitude": 106.66658,
  "open_hour": "5 giờ 30 phút - 21 giờ 30 phút (kể cả CN và ngày lễ)",
  "phone_number": "",
  "province": "",
  "province_id": 3,
  "store_location": "42/20A Nguyễn Giản Thanh, P. 15, Q. 10",
  "store_name": "BHX 42/20A Nguyễn Giản Thanh",
  "store_status": "",
  "ward": "",
  "ward_id": 10241
},
{
  "_id": {
    "$oid": "686f834d453f64991df3fb4b"
  },
  "store_id": 3376,
  "chain": "BHX",
  "district": "",
  "district_id": 34,
  "is_store_virtual": false,
  "latitude": 10.9595,
  "longitude": 106.59767,
  "open_hour": "5 giờ 30 phút - 21 giờ 30 phút (kể cả CN và ngày lễ)",
  "phone_number": "",
  "province": "",
  "province_id": 3,
  "store_location": "427A Tỉnh Lộ 15, Ấp 8, Xã Tân Thạnh Đông, H. Củ Chi",
  "store_name": "BHX 427B Tân Thạnh Đông",
  "store_status": "",
  "ward": "",
  "ward_id": 10355
},
{
  "_id": {
    "$oid": "686f834e453f64991df3fb4c"
  },
  "store_id": 3427,
  "chain": "BHX",
  "district": "",
  "district_id": 23,
  "is_store_virtual": false,
  "latitude": 10.725571,
  "longitude": 106.62016,
  "open_hour": "5 giờ 30 phút - 21 giờ 30 phút (kể cả CN và ngày lễ)",
  "phone_number": "",
  "province": "",
  "province_id": 3,
  "store_location": "162 An Dương Vương, Phường 16, Quận 8, Thành phố Hồ Chí Minh, Việt Nam",
  "store_name": "BHX 162 An Dương Vương",
  "store_status": "",
  "ward": "",
  "ward_id": 10205
},
{
  "_id": {
    "$oid": "686f834e453f64991df3fb4d"
  },
  "store_id": 3432,
  "chain": "BHX",
  "district": "",
  "district_id": 2087,
  "is_store_virtual": false,
  "latitude": 10.840558,
  "longitude": 106.78163,
  "open_hour": "6 giờ - 21 giờ 30 phút (kể cả CN và ngày lễ)",
  "phone_number": "",
  "province": "",
  "province_id": 3,
  "store_location": "1/99A Đường Đình Phong Phú, Phường Tăng Nhơn Phú B, Thành phố Thủ Đức, Thành phố Hồ Chí Minh, Việt Nam",
  "store_name": "BHX 1/99A Đình Phong Phú",
  "store_status": "",
  "ward": "",
  "ward_id": 27115
},
{
  "_id": {
    "$oid": "686f834e453f64991df3fb4e"
  },
  "store_id": 3386,
  "chain": "BHX",
  "district": "",
  "district_id": 2087,
  "is_store_virtual": false,
  "latitude": 10.83995,
  "longitude": 106.79643,
  "open_hour": "5 giờ 30 phút - 21 giờ 30 phút (kể cả CN và ngày lễ)",
  "phone_number": "",
  "province": "",
  "province_id": 3,
  "store_location": "205 Lã Xuân Oai, Khu phố 4, Phường Tăng Nhơn Phú A, Thành phố Thủ Đức, Thành phố Hồ Chí Minh, Việt Nam",
  "store_name": "BHX 205 Lã Xuân Oai",
  "store_status": "",
  "ward": "",
  "ward_id": 27114
},
{
  "_id": {
    "$oid": "686f834e453f64991df3fb4f"
  },
  "store_id": 3387,
  "chain": "BHX",
  "district": "",
  "district_id": 29,
  "is_store_virtual": false,
  "latitude": 10.844044,
  "longitude": 106.6475,
  "open_hour": "5 giờ 30 phút - 21 giờ 30 phút (kể cả CN và ngày lễ)",
  "phone_number": "",
  "province": "",
  "province_id": 3,
  "store_location": "415 Đường số 10, P. 8, Q. Gò Vấp",
  "store_name": "BHX 415 Đường số 10",
  "store_status": "",
  "ward": "",
  "ward_id": 10295
},
{
  "_id": {
    "$oid": "686f834f453f64991df3fb50"
  },
  "store_id": 3388,
  "chain": "BHX",
  "district": "",
  "district_id": 52,
  "is_store_virtual": false,
  "latitude": 10.79301,
  "longitude": 106.67212,
  "open_hour": "5 giờ 30 phút - 21 giờ 30 phút (kể cả CN và ngày lễ)",
  "phone_number": "",
  "province": "",
  "province_id": 3,
  "store_location": "123 Trần Hữu Trang, P. 10, Q. Phú Nhuận",
  "store_name": "BHX 123 Trần Hữu Trang",
  "store_status": "",
  "ward": "",
  "ward_id": 10417
},
{
  "_id": {
    "$oid": "686f834f453f64991df3fb51"
  },
  "store_id": 3743,
  "chain": "BHX",
  "district": "",
  "district_id": 19,
  "is_store_virtual": false,
  "latitude": 10.757932,
  "longitude": 106.71076,
  "open_hour": "5 giờ 30 phút - 21 giờ 30 phút (kể cả CN và ngày lễ)",
  "phone_number": "",
  "province": "",
  "province_id": 3,
  "store_location": "115-115B Xóm Chiếu, Phường 16, Quận 4, Thành phố Hồ Chí Minh, Việt Nam",
  "store_name": "BHX 115 Xóm Chiếu",
  "store_status": "",
  "ward": "",
  "ward_id": 10157
},
{
  "_id": {
    "$oid": "686f834f453f64991df3fb52"
  },
  "store_id": 1992,
  "chain": "BHX",
  "district": "",
  "district_id": 31,
  "is_store_virtual": false,
  "latitude": 10.732247,
  "longitude": 106.618454,
  "open_hour": "5 giờ 30 phút - 21 giờ 30 phút (kể cả CN và ngày lễ)",
  "phone_number": "",
  "province": "",
  "province_id": 3,
  "store_location": "164 Bùi Tư Toàn, P. An Lạc, Q. Bình Tân",
  "store_name": "BHX 164 Bùi Tư Toàn",
  "store_status": "",
  "ward": "",
  "ward_id": 10312
},
{
  "_id": {
    "$oid": "686f834f453f64991df3fb53"
  },
  "store_id": 3600,
  "chain": "BHX",
  "district": "",
  "district_id": 2087,
  "is_store_virtual": false,
  "latitude": 10.855251,
  "longitude": 106.76753,
  "open_hour": "5 giờ 30 phút - 21 giờ 30 phút (kể cả CN và ngày lễ)",
  "phone_number": "",
  "province": "",
  "province_id": 3,
  "store_location": "141 Hoàng Diệu 2, Phường Linh Trung, Thành phố Thủ Đức, Thành phố Hồ Chí Minh, Việt Nam",
  "store_name": "BHX 141 Hoàng Diệu 2",
  "store_status": "",
  "ward": "",
  "ward_id": 27098
},
{
  "_id": {
    "$oid": "686f8350453f64991df3fb54"
  },
  "store_id": 3761,
  "chain": "BHX",
  "district": "",
  "district_id": 29,
  "is_store_virtual": false,
  "latitude": 10.833835,
  "longitude": 106.68177,
  "open_hour": "5 giờ 30 phút - 21 giờ 30 phút (kể cả CN và ngày lễ)",
  "phone_number": "",
  "province": "",
  "province_id": 3,
  "store_location": "111 Lê Đức Thọ, P. 17, Q. Gò Vấp",
  "store_name": "BHX 111 Lê Đức Thọ",
  "store_status": "",
  "ward": "",
  "ward_id": 10289
},
{
  "_id": {
    "$oid": "686f8350453f64991df3fb55"
  },
  "store_id": 3610,
  "chain": "BHX",
  "district": "",
  "district_id": 27,
  "is_store_virtual": false,
  "latitude": 10.844057,
  "longitude": 106.63149,
  "open_hour": "5 giờ 30 phút - 21 giờ 30 phút (kể cả CN và ngày lễ)",
  "phone_number": "",
  "province": "",
  "province_id": 3,
  "store_location": "597 Nguyễn Văn Quá, P. Đông Hưng Thuận, Q. 12",
  "store_name": "BHX 597 Nguyễn Văn Quá",
  "store_status": "",
  "ward": "",
  "ward_id": 10259
},
{
  "_id": {
    "$oid": "686f8350453f64991df3fb56"
  },
  "store_id": 3786,
  "chain": "BHX",
  "district": "",
  "district_id": 35,
  "is_store_virtual": false,
  "latitude": 10.712159,
  "longitude": 106.70138,
  "open_hour": "6 giờ - 21 giờ 30 phút (kể cả CN và ngày lễ)",
  "phone_number": "",
  "province": "",
  "province_id": 3,
  "store_location": "946 Lê Văn Lương, Ấp 3, Xã Phước Kiển, Huyện Nhà Bè, Thành phố Hồ Chí Minh, Việt Nam",
  "store_name": "BHX 946 Lê Văn Lương",
  "store_status": "",
  "ward": "",
  "ward_id": 10371
},
{
  "_id": {
    "$oid": "686f8350453f64991df3fb57"
  },
  "store_id": 3612,
  "chain": "BHX",
  "district": "",
  "district_id": 33,
  "is_store_virtual": false,
  "latitude": 10.775055,
  "longitude": 106.63498,
  "open_hour": "5 giờ 30 phút - 21 giờ 30 phút (kể cả CN và ngày lễ)",
  "phone_number": "",
  "province": "",
  "province_id": 3,
  "store_location": "28 Trịnh Đình Thảo, P. Hòa Thạnh, Q. Tân Phú",
  "store_name": "BHX 28 Trịnh Đình Thảo",
  "store_status": "",
  "ward": "",
  "ward_id": 10335
},
{
  "_id": {
    "$oid": "686f8351453f64991df3fb58"
  },
  "store_id": 3802,
  "chain": "BHX",
  "district": "",
  "district_id": 27,
  "is_store_virtual": false,
  "latitude": 10.896175,
  "longitude": 106.68916,
  "open_hour": "5 giờ 30 phút - 21 giờ 30 phút (kể cả CN và ngày lễ)",
  "phone_number": "",
  "province": "",
  "province_id": 3,
  "store_location": "53/3A Hà Huy Giáp, Khu Phố 2, P. Thạnh Lộc, Q. 12",
  "store_name": "BHX 962 Hà Huy Giáp",
  "store_status": "",
  "ward": "",
  "ward_id": 10265
},
{
  "_id": {
    "$oid": "686f8351453f64991df3fb59"
  },
  "store_id": 2214,
  "chain": "BHX",
  "district": "",
  "district_id": 33,
  "is_store_virtual": false,
  "latitude": 10.808006,
  "longitude": 106.62918,
  "open_hour": "5 giờ 30 phút - 21 giờ 30 phút (kể cả CN và ngày lễ)",
  "phone_number": "",
  "province": "",
  "province_id": 3,
  "store_location": "63 Nguyễn Đỗ Cung, P. Tây Thạnh, Q. Tân Phú",
  "store_name": "BHX 63 Nguyễn Đỗ Cung",
  "store_status": "",
  "ward": "",
  "ward_id": 10344
},
{
  "_id": {
    "$oid": "686f8351453f64991df3fb5a"
  },
  "store_id": 3624,
  "chain": "BHX",
  "district": "",
  "district_id": 29,
  "is_store_virtual": false,
  "latitude": 10.84927,
  "longitude": 106.65041,
  "open_hour": "6 giờ - 21 giờ 30 phút (kể cả CN và ngày lễ)",
  "phone_number": "",
  "province": "",
  "province_id": 3,
  "store_location": "278 Phạm Văn Chiêu, P.9, Q. Gò Vấp",
  "store_name": "BHX 278 Phạm Văn Chiêu",
  "store_status": "",
  "ward": "",
  "ward_id": 10296
},
{
  "_id": {
    "$oid": "686f8351453f64991df3fb5b"
  },
  "store_id": 3646,
  "chain": "BHX",
  "district": "",
  "district_id": 30,
  "is_store_virtual": false,
  "latitude": 10.795373,
  "longitude": 106.66218,
  "open_hour": "5 giờ 30 phút - 21 giờ 30 phút (kể cả CN và ngày lễ)",
  "phone_number": "",
  "province": "",
  "province_id": 3,
  "store_location": "8 Dương Vân Nga, P. 3, Q. Tân Bình",
  "store_name": "BHX 8 Dương Vân Nga",
  "store_status": "",
  "ward": "",
  "ward_id": 10304
},
{
  "_id": {
    "$oid": "686f8351453f64991df3fb5c"
  },
  "store_id": 3647,
  "chain": "BHX",
  "district": "",
  "district_id": 22,
  "is_store_virtual": false,
  "latitude": 10.74314,
  "longitude": 106.72633,
  "open_hour": "5 giờ 30 phút - 21 giờ 30 phút (kể cả CN và ngày lễ)",
  "phone_number": "",
  "province": "",
  "province_id": 3,
  "store_location": "49 Lý Phục Man, Phường Bình Thuận, Quận 7, Thành Phố Hồ Chí Minh, Việt Nam",
  "store_name": "BHX 49 Lý Phục Man",
  "store_status": "",
  "ward": "",
  "ward_id": 10188
},
{
  "_id": {
    "$oid": "686f8352453f64991df3fb5d"
  },
  "store_id": 3668,
  "chain": "BHX",
  "district": "",
  "district_id": 2087,
  "is_store_virtual": false,
  "latitude": 10.78848,
  "longitude": 106.77737,
  "open_hour": "5 giờ 30 phút - 21 giờ 30 phút (kể cả CN và ngày lễ)",
  "phone_number": "",
  "province": "",
  "province_id": 3,
  "store_location": "602 Nguyễn Duy Trinh , Khu phố 2, Phường Bình Trưng Đông, Thành phố Thủ Đức, Thành phố Hồ Chí Minh, Việt Nam",
  "store_name": "BHX 602 Nguyễn Duy Trinh",
  "store_status": "",
  "ward": "",
  "ward_id": 27126
},
{
  "_id": {
    "$oid": "686f8352453f64991df3fb5e"
  },
  "store_id": 3669,
  "chain": "BHX",
  "district": "",
  "district_id": 31,
  "is_store_virtual": false,
  "latitude": 10.801307,
  "longitude": 106.58687,
  "open_hour": "5 giờ 30 phút - 21 giờ 30 phút (kể cả CN và ngày lễ)",
  "phone_number": "",
  "province": "",
  "province_id": 3,
  "store_location": "43A Bình Thành, P. Bình Hưng Hòa B, Q. Bình Tân",
  "store_name": "BHX 43A Bình Thành",
  "store_status": "",
  "ward": "",
  "ward_id": 10316
},
{
  "_id": {
    "$oid": "686f8352453f64991df3fb5f"
  },
  "store_id": 3652,
  "chain": "BHX",
  "district": "",
  "district_id": 19,
  "is_store_virtual": false,
  "latitude": 10.753805,
  "longitude": 106.69494,
  "open_hour": "6 giờ - 21 giờ 30 phút (kể cả CN và ngày lễ)",
  "phone_number": "",
  "province": "",
  "province_id": 3,
  "store_location": "25 Nguyễn Khoái, Phường 01, Quận 4, Thành phố Hồ Chí Minh, Việt Nam",
  "store_name": "BHX 25 Nguyễn Khoái",
  "store_status": "",
  "ward": "",
  "ward_id": 10144
},
{
  "_id": {
    "$oid": "686f8352453f64991df3fb60"
  },
  "store_id": 3673,
  "chain": "BHX",
  "district": "",
  "district_id": 23,
  "is_store_virtual": false,
  "latitude": 10.706682,
  "longitude": 106.62289,
  "open_hour": "5 giờ 30 phút - 21 giờ 30 phút (kể cả CN và ngày lễ)",
  "phone_number": "",
  "province": "",
  "province_id": 3,
  "store_location": "3425-3427 Phạm Thế Hiển, Phường 7, Quận 8, Thành Phố Hồ Chí Minh, Việt Nam",
  "store_name": "BHX 3425 Phạm Thế Hiển",
  "store_status": "",
  "ward": "",
  "ward_id": 10211
},
{
  "_id": {
    "$oid": "686f8353453f64991df3fb61"
  },
  "store_id": 2099,
  "chain": "BHX",
  "district": "",
  "district_id": 31,
  "is_store_virtual": false,
  "latitude": 10.814608,
  "longitude": 106.58887,
  "open_hour": "5 giờ 30 phút - 21 giờ 30 phút (kể cả CN và ngày lễ)",
  "phone_number": "",
  "province": "",
  "province_id": 3,
  "store_location": "423 Bình Thành, P. Bình Hưng Hòa B, Q. Bình Tân",
  "store_name": "BHX 423 Bình Thành",
  "store_status": "",
  "ward": "",
  "ward_id": 10316
},
{
  "_id": {
    "$oid": "686f8353453f64991df3fb62"
  },
  "store_id": 2103,
  "chain": "BHX",
  "district": "",
  "district_id": 31,
  "is_store_virtual": false,
  "latitude": 10.810127,
  "longitude": 106.60099,
  "open_hour": "6 giờ - 21 giờ 30 phút (kể cả CN và ngày lễ)",
  "phone_number": "",
  "province": "",
  "province_id": 3,
  "store_location": "14 Đường Số 2, P. Bình Hưng Hòa, Q. Bình Tân",
  "store_name": "BHX 14 Đường số 2",
  "store_status": "",
  "ward": "",
  "ward_id": 10314
},
{
  "_id": {
    "$oid": "686f8353453f64991df3fb63"
  },
  "store_id": 3712,
  "chain": "BHX",
  "district": "",
  "district_id": 2087,
  "is_store_virtual": false,
  "latitude": 10.859635,
  "longitude": 106.77829,
  "open_hour": "5 giờ 30 phút - 21 giờ 30 phút (kể cả CN và ngày lễ)",
  "phone_number": "",
  "province": "",
  "province_id": 3,
  "store_location": "40-40A-42-44 Lê Văn Chí, Khu phố 1, Phường Linh Trung, Thành phố Thủ Đức, Thành phố Hồ Chí Minh, Việt Nam",
  "store_name": "BHX 42 Lê Văn Chí",
  "store_status": "",
  "ward": "",
  "ward_id": 27100
},
{
  "_id": {
    "$oid": "686f8353453f64991df3fb64"
  },
  "store_id": 3713,
  "chain": "BHX",
  "district": "",
  "district_id": 22,
  "is_store_virtual": false,
  "latitude": 10.745009,
  "longitude": 106.71358,
  "open_hour": "5 giờ 30 phút - 21 giờ 30 phút (kể cả CN và ngày lễ)",
  "phone_number": "",
  "province": "",
  "province_id": 3,
  "store_location": "Số 2-2A Đường số 17, Phường Tân Kiểng, Quận 7, Thành phố Hồ Chí Minh )",
  "store_name": "BHX Số 2-2A Đường số 17",
  "store_status": "",
  "ward": "",
  "ward_id": 10192
},
{
  "_id": {
    "$oid": "686f8354453f64991df3fb65"
  },
  "store_id": 191,
  "chain": "BHX",
  "district": "",
  "district_id": 31,
  "is_store_virtual": false,
  "latitude": 10.801733,
  "longitude": 106.61057,
  "open_hour": "5 giờ 30 phút - 21 giờ 30 phút (kể cả CN và ngày lễ)",
  "phone_number": "",
  "province": "",
  "province_id": 3,
  "store_location": "393 Hương Lộ 3, P. Bình Hưng Hòa, Q. Bình Tân",
  "store_name": "BHX 393 Hương Lộ 3",
  "store_status": "",
  "ward": "",
  "ward_id": 10314
},
{
  "_id": {
    "$oid": "686f8354453f64991df3fb66"
  },
  "store_id": 2109,
  "chain": "BHX",
  "district": "",
  "district_id": 27,
  "is_store_virtual": false,
  "latitude": 10.85901,
  "longitude": 106.623604,
  "open_hour": "5 giờ 30 phút - 21 giờ 30 phút (kể cả CN và ngày lễ)",
  "phone_number": "",
  "province": "",
  "province_id": 3,
  "store_location": "110 Tân Chánh Hiệp 36, P. Tân Chánh Hiệp, Q. 12",
  "store_name": "BHX 110 Đường TCH36",
  "store_status": "",
  "ward": "",
  "ward_id": 10261
},
{
  "_id": {
    "$oid": "686f8354453f64991df3fb67"
  },
  "store_id": 2111,
  "chain": "BHX",
  "district": "",
  "district_id": 33,
  "is_store_virtual": false,
  "latitude": 10.767107,
  "longitude": 106.62547,
  "open_hour": "5 giờ 30 phút - 21 giờ 30 phút (kể cả CN và ngày lễ)",
  "phone_number": "",
  "province": "",
  "province_id": 3,
  "store_location": "138 Lý Thánh Tông, P. Hiệp Tân, Q. Tân Phú",
  "store_name": "BHX 138 Lý Thánh Tông",
  "store_status": "",
  "ward": "",
  "ward_id": 10334
},
{
  "_id": {
    "$oid": "686f8354453f64991df3fb68"
  },
  "store_id": 2337,
  "chain": "BHX",
  "district": "",
  "district_id": 36,
  "is_store_virtual": false,
  "latitude": 10.832556,
  "longitude": 106.56172,
  "open_hour": "5 giờ 30 phút - 21 giờ 30 phút (kể cả CN và ngày lễ)",
  "phone_number": "",
  "province": "",
  "province_id": 3,
  "store_location": "C5/5E Dân Công Hỏa Tuyến, Vĩnh Lộc A, H. Bình Chánh",
  "store_name": "BHX C5/5E Dân Công Hỏa Tuyến",
  "store_status": "",
  "ward": "",
  "ward_id": 10387
},
{
  "_id": {
    "$oid": "686f8355453f64991df3fb69"
  },
  "store_id": 2113,
  "chain": "BHX",
  "district": "",
  "district_id": 36,
  "is_store_virtual": false,
  "latitude": 10.778609,
  "longitude": 106.57322,
  "open_hour": "5 giờ 30 phút - 21 giờ 30 phút (kể cả CN và ngày lễ)",
  "phone_number": "",
  "province": "",
  "province_id": 3,
  "store_location": "Vĩnh Lộc B",
  "store_name": "BHX A9/13 Đường 1A",
  "store_status": "",
  "ward": "",
  "ward_id": 10388
},
{
  "_id": {
    "$oid": "686f8355453f64991df3fb6a"
  },
  "store_id": 2115,
  "chain": "BHX",
  "district": "",
  "district_id": 36,
  "is_store_virtual": false,
  "latitude": 10.778427,
  "longitude": 106.57428,
  "open_hour": "5 giờ 30 phút - 21 giờ 30 phút (kể cả CN và ngày lễ)",
  "phone_number": "",
  "province": "",
  "province_id": 3,
  "store_location": "A8/17 Đường 1A, Ấp 1, Xã Vĩnh Lộc B, H. Bình Chánh",
  "store_name": "BHX A8/17 Đường 1A",
  "store_status": "",
  "ward": "",
  "ward_id": 10388
},
{
  "_id": {
    "$oid": "686f8355453f64991df3fb6b"
  },
  "store_id": 2882,
  "chain": "BHX",
  "district": "",
  "district_id": 27,
  "is_store_virtual": false,
  "latitude": 10.880107,
  "longitude": 106.6385,
  "open_hour": "5 giờ 30 phút - 21 giờ 30 phút (kể cả CN và ngày lễ)",
  "phone_number": "",
  "province": "",
  "province_id": 3,
  "store_location": "22i Hiệp Thành 13, P. Hiệp Thành, Q. 12",
  "store_name": "BHX 22I-22I/2 Hiệp Thành 13",
  "store_status": "",
  "ward": "",
  "ward_id": 10260
},
{
  "_id": {
    "$oid": "686f8355453f64991df3fb6c"
  },
  "store_id": 2900,
  "chain": "BHX",
  "district": "",
  "district_id": 36,
  "is_store_virtual": false,
  "latitude": 10.681028,
  "longitude": 106.61194,
  "open_hour": "5 giờ 30 phút - 21 giờ 30 phút (kể cả CN và ngày lễ)",
  "phone_number": "",
  "province": "",
  "province_id": 3,
  "store_location": "An Phú Tây",
  "store_name": "BHX 222B/7DGV Ấp 2",
  "store_status": "",
  "ward": "",
  "ward_id": 10374
},
{
  "_id": {
    "$oid": "686f8356453f64991df3fb6d"
  },
  "store_id": 1933,
  "chain": "BHX",
  "district": "",
  "district_id": 33,
  "is_store_virtual": false,
  "latitude": 10.797044,
  "longitude": 106.63782,
  "open_hour": "5 giờ 30 phút - 21 giờ 30 phút (kể cả CN và ngày lễ)",
  "phone_number": "",
  "province": "",
  "province_id": 3,
  "store_location": "871 Âu Cơ, P. Tân Sơn Nhì, Q. Tân Phú",
  "store_name": "BHX 871 Âu Cơ",
  "store_status": "",
  "ward": "",
  "ward_id": 10341
},
{
  "_id": {
    "$oid": "686f8356453f64991df3fb6e"
  },
  "store_id": 1935,
  "chain": "BHX",
  "district": "",
  "district_id": 31,
  "is_store_virtual": false,
  "latitude": 10.806209,
  "longitude": 106.60388,
  "open_hour": "5 giờ 30 phút - 21 giờ 30 phút (kể cả CN và ngày lễ)",
  "phone_number": "",
  "province": "",
  "province_id": 3,
  "store_location": "146 Đường Số 5, Khu Phố 8, P. Bình Hưng Hòa, Q. Bình Tân",
  "store_name": "BHX 146 Đường số 5",
  "store_status": "",
  "ward": "",
  "ward_id": 10314
},
{
  "_id": {
    "$oid": "686f8356453f64991df3fb6f"
  },
  "store_id": 2579,
  "chain": "BHX",
  "district": "",
  "district_id": 27,
  "is_store_virtual": false,
  "latitude": 10.8736,
  "longitude": 106.65097,
  "open_hour": "6 giờ - 21 giờ 30 phút (kể cả CN và ngày lễ)",
  "phone_number": "",
  "province": "",
  "province_id": 3,
  "store_location": "62A Trần Thị Cờ, P. Thới An, Q. 12",
  "store_name": "BHX 62A Trần Thị Cờ",
  "store_status": "",
  "ward": "",
  "ward_id": 10267
},
{
  "_id": {
    "$oid": "686f8357453f64991df3fb70"
  },
  "store_id": 2379,
  "chain": "BHX",
  "district": "",
  "district_id": 29,
  "is_store_virtual": false,
  "latitude": 10.831202,
  "longitude": 106.64248,
  "open_hour": "5 giờ 30 phút - 21 giờ 30 phút (kể cả CN và ngày lễ)",
  "phone_number": "",
  "province": "",
  "province_id": 3,
  "store_location": "781 Phạm Văn Bạch, P. 12 , Q. Gò Vấp",
  "store_name": "BHX 781 Phạm Văn Bạch",
  "store_status": "",
  "ward": "",
  "ward_id": 10284
},
{
  "_id": {
    "$oid": "686f8357453f64991df3fb71"
  },
  "store_id": 2596,
  "chain": "BHX",
  "district": "",
  "district_id": 36,
  "is_store_virtual": false,
  "latitude": 10.784483,
  "longitude": 106.58644,
  "open_hour": "5 giờ 30 phút - 21 giờ 30 phút (kể cả CN và ngày lễ)",
  "phone_number": "",
  "province": "",
  "province_id": 3,
  "store_location": "B14A/13A/1L Cây Cám, Ấp 2C, Xã Vĩnh Lộc B, H. Bình Chánh",
  "store_name": "BHX B14/12/2-B14A/13A/1L Cây Cám",
  "store_status": "",
  "ward": "",
  "ward_id": 10388
},
{
  "_id": {
    "$oid": "686f8357453f64991df3fb72"
  },
  "store_id": 2403,
  "chain": "BHX",
  "district": "",
  "district_id": 36,
  "is_store_virtual": false,
  "latitude": 10.798812,
  "longitude": 106.55923,
  "open_hour": "5 giờ 30 phút - 21 giờ 30 phút (kể cả CN và ngày lễ)",
  "phone_number": "",
  "province": "",
  "province_id": 3,
  "store_location": "Vĩnh Lộc B",
  "store_name": "BHX E1/2 Ấp 5",
  "store_status": "",
  "ward": "",
  "ward_id": 10388
},
{
  "_id": {
    "$oid": "686f8357453f64991df3fb73"
  },
  "store_id": 2405,
  "chain": "BHX",
  "district": "",
  "district_id": 32,
  "is_store_virtual": false,
  "latitude": 10.840567,
  "longitude": 106.60425,
  "open_hour": "5 giờ 30 phút - 21 giờ 30 phút (kể cả CN và ngày lễ)",
  "phone_number": "",
  "province": "",
  "province_id": 3,
  "store_location": "11/3D Bà Điểm 9, ấp Nam Lâm, Xã Bà Điểm, Huyện Hóc Môn, Thành phố Hồ Chí Minh, Việt Nam",
  "store_name": "BHX 11/3D Bà Điểm 9",
  "store_status": "",
  "ward": "",
  "ward_id": 10323
},
{
  "_id": {
    "$oid": "686f8358453f64991df3fb74"
  },
  "store_id": 2422,
  "chain": "BHX",
  "district": "",
  "district_id": 27,
  "is_store_virtual": false,
  "latitude": 10.869156,
  "longitude": 106.62149,
  "open_hour": "5 giờ 30 phút - 21 giờ 30 phút (kể cả CN và ngày lễ)",
  "phone_number": "",
  "province": "",
  "province_id": 3,
  "store_location": "1/1 Tân Chánh Hiệp 25, P. Tân Chánh Hiệp, Q. 12",
  "store_name": "BHX 1/1 Tân Chánh Hiệp 25",
  "store_status": "",
  "ward": "",
  "ward_id": 10261
},
{
  "_id": {
    "$oid": "686f8358453f64991df3fb75"
  },
  "store_id": 2535,
  "chain": "BHX",
  "district": "",
  "district_id": 27,
  "is_store_virtual": false,
  "latitude": 10.8476,
  "longitude": 106.61391,
  "open_hour": "5 giờ 30 phút - 21 giờ 30 phút (kể cả CN và ngày lễ)",
  "phone_number": "",
  "province": "",
  "province_id": 3,
  "store_location": "10A/2 Trung Mỹ Tây, Khu Phố 2, P. Trung Mỹ Tây, Q. 12",
  "store_name": "BHX 10A/2 Trung Mỹ Tây",
  "store_status": "",
  "ward": "",
  "ward_id": 10268
},
{
  "_id": {
    "$oid": "686f8358453f64991df3fb76"
  },
  "store_id": 2423,
  "chain": "BHX",
  "district": "",
  "district_id": 32,
  "is_store_virtual": false,
  "latitude": 10.869986,
  "longitude": 106.60854,
  "open_hour": "5 giờ 30 phút - 21 giờ 30 phút (kể cả CN và ngày lễ)",
  "phone_number": "",
  "province": "",
  "province_id": 3,
  "store_location": "93/8A ấp Mỹ Hòa 1, xã Trung Chánh, huyện Hóc Môn, Thành phố Hồ Chí Minh, Việt Nam",
  "store_name": "BHX 93/8A Mỹ Hòa 1",
  "store_status": "",
  "ward": "",
  "ward_id": 10330
},
{
  "_id": {
    "$oid": "686f8358453f64991df3fb77"
  },
  "store_id": 2425,
  "chain": "BHX",
  "district": "",
  "district_id": 32,
  "is_store_virtual": false,
  "latitude": 10.873597,
  "longitude": 106.6042,
  "open_hour": "5 giờ 30 phút - 21 giờ 30 phút (kể cả CN và ngày lễ)",
  "phone_number": "",
  "province": "",
  "province_id": 3,
  "store_location": "33/4F Trung Mỹ - Tân Xuân, Ấp Mới 1, Xã Tân Xuân, Huyện Hóc Môn, Thành phố Hồ Chí Minh, Việt Nam",
  "store_name": "BHX 33/4F Trung Mỹ",
  "store_status": "",
  "ward": "",
  "ward_id": 10328
},
{
  "_id": {
    "$oid": "686f8359453f64991df3fb78"
  },
  "store_id": 2713,
  "chain": "BHX",
  "district": "",
  "district_id": 27,
  "is_store_virtual": false,
  "latitude": 10.853919,
  "longitude": 106.67922,
  "open_hour": "5 giờ 30 phút - 21 giờ 30 phút (kể cả CN và ngày lễ)",
  "phone_number": "",
  "province": "",
  "province_id": 3,
  "store_location": "482 Hà Huy Giáp, Khu Phố 3, P. Thạnh Lộc, Q. 12",
  "store_name": "BHX 482 Hà Huy Giáp",
  "store_status": "",
  "ward": "",
  "ward_id": 10265
},
{
  "_id": {
    "$oid": "686f8359453f64991df3fb79"
  },
  "store_id": 2714,
  "chain": "BHX",
  "district": "",
  "district_id": 29,
  "is_store_virtual": false,
  "latitude": 10.843025,
  "longitude": 106.66231,
  "open_hour": "5 giờ 30 phút - 21 giờ 30 phút (kể cả CN và ngày lễ)",
  "phone_number": "",
  "province": "",
  "province_id": 3,
  "store_location": "178 Đường Số 8, P. 11, Q. Gò Vấp",
  "store_name": "BHX 178-178A Đường Số 8",
  "store_status": "",
  "ward": "",
  "ward_id": 10283
},
{
  "_id": {
    "$oid": "686f8359453f64991df3fb7a"
  },
  "store_id": 2436,
  "chain": "BHX",
  "district": "",
  "district_id": 32,
  "is_store_virtual": false,
  "latitude": 10.848787,
  "longitude": 106.58911,
  "open_hour": "5 giờ 30 phút - 21 giờ 30 phút (kể cả CN và ngày lễ)",
  "phone_number": "",
  "province": "",
  "province_id": 3,
  "store_location": "23/3B Phan Văn Hớn, Ấp 07, Xã Xuân Thới Thượng, Huyện Hóc Môn, Thành phố Hồ Chí Minh, Việt Nam",
  "store_name": "BHX 23/3B Phan Văn Hớn",
  "store_status": "",
  "ward": "",
  "ward_id": 10333
},
{
  "_id": {
    "$oid": "686f8359453f64991df3fb7b"
  },
  "store_id": 2546,
  "chain": "BHX",
  "district": "",
  "district_id": 27,
  "is_store_virtual": false,
  "latitude": 10.863185,
  "longitude": 106.63844,
  "open_hour": "5 giờ 30 phút - 21 giờ 30 phút (kể cả CN và ngày lễ)",
  "phone_number": "",
  "province": "",
  "province_id": 3,
  "store_location": "305 Khu Phố 1, P. Tân Thới Hiệp, Q. 12",
  "store_name": "BHX 305 KP1 Tân Thới Hiệp",
  "store_status": "",
  "ward": "",
  "ward_id": 10263
},
{
  "_id": {
    "$oid": "686f835a453f64991df3fb7c"
  },
  "store_id": 2792,
  "chain": "BHX",
  "district": "",
  "district_id": 29,
  "is_store_virtual": false,
  "latitude": 10.839824,
  "longitude": 106.65911,
  "open_hour": "5 giờ 30 phút - 21 giờ 30 phút (kể cả CN và ngày lễ)",
  "phone_number": "",
  "province": "",
  "province_id": 3,
  "store_location": "95 Đường Số 13, P. 11, Q. Gò Vấp",
  "store_name": "BHX 95 Đường Số 13",
  "store_status": "",
  "ward": "",
  "ward_id": 10283
},
{
  "_id": {
    "$oid": "686f835a453f64991df3fb7d"
  },
  "store_id": 2715,
  "chain": "BHX",
  "district": "",
  "district_id": 27,
  "is_store_virtual": false,
  "latitude": 10.867523,
  "longitude": 106.62879,
  "open_hour": "5 giờ 30 phút - 21 giờ 30 phút (kể cả CN và ngày lễ)",
  "phone_number": "",
  "province": "",
  "province_id": 3,
  "store_location": "Thửa 547 Đường Huỳnh Thị Hai, P. Tân Chánh Hiệp, Q. 12",
  "store_name": "BHX Thửa 547 Tân Chánh Hiệp",
  "store_status": "",
  "ward": "",
  "ward_id": 10261
},
{
  "_id": {
    "$oid": "686f835a453f64991df3fb7e"
  },
  "store_id": 2717,
  "chain": "BHX",
  "district": "",
  "district_id": 32,
  "is_store_virtual": false,
  "latitude": 10.90755,
  "longitude": 106.59763,
  "open_hour": "5 giờ 30 phút - 21 giờ 30 phút (kể cả CN và ngày lễ)",
  "phone_number": "",
  "province": "",
  "province_id": 3,
  "store_location": "54/1 đường Liên Xã Thị Trấn - Tân Hiệp, Huyện Hóc Môn, TP. Hồ Chí Minh",
  "store_name": "Ngã 3 chợ Ông Trác",
  "store_status": "",
  "ward": "",
  "ward_id": 10326
},
{
  "_id": {
    "$oid": "686f835a453f64991df3fb7f"
  },
  "store_id": 2470,
  "chain": "BHX",
  "district": "",
  "district_id": 27,
  "is_store_virtual": false,
  "latitude": 10.834475,
  "longitude": 106.61368,
  "open_hour": "5 giờ 30 phút - 21 giờ 30 phút (kể cả CN và ngày lễ)",
  "phone_number": "",
  "province": "",
  "province_id": 3,
  "store_location": "82/1 Tân Thới Nhất 8, Khu Phố 6, P. Tân Thới Nhất, Q. 12",
  "store_name": "BHX 82/1 Tân Thới Nhất 8",
  "store_status": "",
  "ward": "",
  "ward_id": 10264
},
{
  "_id": {
    "$oid": "686f835b453f64991df3fb80"
  },
  "store_id": 2725,
  "chain": "BHX",
  "district": "",
  "district_id": 32,
  "is_store_virtual": false,
  "latitude": 10.856309,
  "longitude": 106.59719,
  "open_hour": "5 giờ 30 phút - 21 giờ 30 phút (kể cả CN và ngày lễ)",
  "phone_number": "",
  "province": "",
  "province_id": 3,
  "store_location": "38/4 Liên Xã, Ấp Bắc Lân, Xã Bà Điểm, H. Hóc Môn",
  "store_name": "BHX Thửa 790-791 Bà Điểm",
  "store_status": "",
  "ward": "",
  "ward_id": 10323
},
{
  "_id": {
    "$oid": "686f835b453f64991df3fb81"
  },
  "store_id": 2477,
  "chain": "BHX",
  "district": "",
  "district_id": 32,
  "is_store_virtual": false,
  "latitude": 10.881243,
  "longitude": 106.58251,
  "open_hour": "5 giờ 30 phút - 21 giờ 30 phút (kể cả CN và ngày lễ)",
  "phone_number": "",
  "province": "",
  "province_id": 3,
  "store_location": "23/1A Ấp 6, Xã Xuân Thới Sơn, H. Hóc Môn",
  "store_name": "BHX 23/1A Ấp 6 Xuân Thới Sơn",
  "store_status": "",
  "ward": "",
  "ward_id": 10332
},
{
  "_id": {
    "$oid": "686f835b453f64991df3fb82"
  },
  "store_id": 2736,
  "chain": "BHX",
  "district": "",
  "district_id": 27,
  "is_store_virtual": false,
  "latitude": 10.87047,
  "longitude": 106.64336,
  "open_hour": "5 giờ 30 phút - 21 giờ 30 phút (kể cả CN và ngày lễ)",
  "phone_number": "",
  "province": "",
  "province_id": 3,
  "store_location": "30A Đường HT27, P. Hiệp Thành, Q.12",
  "store_name": "BHX 30A Đường HT27",
  "store_status": "",
  "ward": "",
  "ward_id": 10260
},
{
  "_id": {
    "$oid": "686f835b453f64991df3fb83"
  },
  "store_id": 4244,
  "chain": "BHX",
  "district": "",
  "district_id": 2087,
  "is_store_virtual": false,
  "latitude": 10.826148,
  "longitude": 106.78017,
  "open_hour": "6 giờ - 21 giờ 30 phút (kể cả CN và ngày lễ)",
  "phone_number": "",
  "province": "",
  "province_id": 3,
  "store_location": "197A Dương Đình Hội, Phường Phước Long B, Thành phố Thủ Đức, Thành phố Hồ Chí Minh, Việt Nam",
  "store_name": "BHX 197A Dương Đình Hội",
  "store_status": "",
  "ward": "",
  "ward_id": 27116
},
{
  "_id": {
    "$oid": "686f835c453f64991df3fb84"
  },
  "store_id": 4405,
  "chain": "BHX",
  "district": "",
  "district_id": 30,
  "is_store_virtual": false,
  "latitude": 10.799873,
  "longitude": 106.647484,
  "open_hour": "5 giờ 30 phút - 21 giờ 30 phút (kể cả CN và ngày lễ)",
  "phone_number": "",
  "province": "",
  "province_id": 3,
  "store_location": "112 Hoàng Hoa Thám, Phường 12, Quận Tân Bình, TP.Hồ Chí Minh",
  "store_name": "BHX 112 Hoàng Hoa Thám",
  "store_status": "",
  "ward": "",
  "ward_id": 10300
},
{
  "_id": {
    "$oid": "686f835c453f64991df3fb85"
  },
  "store_id": 4406,
  "chain": "BHX",
  "district": "",
  "district_id": 23,
  "is_store_virtual": false,
  "latitude": 10.745571,
  "longitude": 106.66587,
  "open_hour": "5 giờ 30 phút - 21 giờ 30 phút (kể cả CN và ngày lễ)",
  "phone_number": "",
  "province": "",
  "province_id": 3,
  "store_location": "797 Hưng Phú, Phường 9, Quận 8, Thành Phố Hồ Chí Minh, Việt Nam",
  "store_name": "BHX 797 Hưng Phú",
  "store_status": "",
  "ward": "",
  "ward_id": 10213
},
{
  "_id": {
    "$oid": "686f835c453f64991df3fb86"
  },
  "store_id": 4345,
  "chain": "BHX",
  "district": "",
  "district_id": 31,
  "is_store_virtual": false,
  "latitude": 10.779672,
  "longitude": 106.6204,
  "open_hour": "5 giờ 30 phút - 21 giờ 30 phút (kể cả CN và ngày lễ)",
  "phone_number": "",
  "province": "",
  "province_id": 3,
  "store_location": "135B Bình Long, P. Bình Hưng Hòa A, Quận Bình Tân, TP. HCM",
  "store_name": "BHX 135B -135C Bình Long",
  "store_status": "",
  "ward": "",
  "ward_id": 10315
},
{
  "_id": {
    "$oid": "686f835c453f64991df3fb87"
  },